[{"lat":46.948731,"lng":8.015369,"name":"Schüpfheim"},{"lat":46.945754,"lng":8.00806,"name":"Schüpfheim"},{"lat":47.01785,"lng":8.302189,"name":"Kriens, Schlund"},{"lat":46.979175,"lng":8.415774,"name":"Buochs"},{"lat":46.993344,"lng":8.06578,"name":"Entlebuch"},{"lat":47.020227,"lng":8.295953,"name":"Kriens Pilatusmarkt"},{"lat":47.019457,"lng":8.311015,"name":"Horw"},{"lat":47.0344,"lng":8.273273,"name":"Kriens Schappe"},{"lat":47.037274,"lng":8.178226,"name":"Malters Weihermatte"},{"lat":47.038042,"lng":8.294225,"name":"Kriens, Langsägestrasse"},{"lat":47.037314,"lng":8.308542,"name":"Luzern Hubelmatt"},{"lat":47.036893,"lng":8.328298,"name":"Luzern Schönbühl"},{"lat":46.624278,"lng":8.035829,"name":"Grindelwald"},{"lat":47.046393,"lng":8.307018,"name":"Luzern Winkelried"},{"lat":47.05104,"lng":8.271084,"name":"Littau"},{"lat":47.050939,"lng":8.299445,"name":"Luzern Kasernenplatz"},{"lat":47.050264,"lng":8.310173,"name":"Luzern Bahnhof"},{"lat":47.052138,"lng":8.303926,"name":"City Luzern Food"},{"lat":47.059972,"lng":8.2859,"name":"Reussbühl"},{"lat":47.056913,"lng":8.310045,"name":"Luzern Löwencenter"},{"lat":47.061179,"lng":8.308574,"name":"Luzern Schlossberg"},{"lat":47.046785,"lng":8.373958,"name":"Meggen"},{"lat":47.067946,"lng":8.315319,"name":"Ebikon"},{"lat":47.073261,"lng":8.290494,"name":"Emmen"},{"lat":47.074145,"lng":8.291364,"name":"Emmen-Süd"},{"lat":47.05806,"lng":8.073329,"name":"Wolhusen"},{"lat":47.080641,"lng":8.271478,"name":"Emmenbrücke Sprengi"},{"lat":47.061064,"lng":8.073417,"name":"Wolhusen"},{"lat":47.084304,"lng":8.272535,"name":"Emmen Tankstelle"},{"lat":47.07137,"lng":8.365052,"name":"Adligenswil"},{"lat":47.082623,"lng":8.126992,"name":"Ruswil"},{"lat":47.082636,"lng":8.343201,"name":"Ebikon"},{"lat":47.093622,"lng":8.270151,"name":"Rothenburg"},{"lat":46.690446,"lng":7.869148,"name":"Interlaken Bahnhof"},{"lat":46.689681,"lng":7.869247,"name":"Interlaken Ost"},{"lat":46.876285,"lng":8.631486,"name":"Altdorf"},{"lat":46.680643,"lng":7.866234,"name":"Matten"},{"lat":46.68535,"lng":7.855905,"name":"Interlaken"},{"lat":46.668202,"lng":8.587174,"name":"Göschenen"},{"lat":46.824318,"lng":8.649038,"name":"Erstfeld"},{"lat":46.684724,"lng":7.849835,"name":"Unterseen"},{"lat":46.880931,"lng":8.64572,"name":"Altdorf"},{"lat":47.113045,"lng":8.231832,"name":"Neuenkirch"},{"lat":46.869559,"lng":8.650895,"name":"Schattdorf"},{"lat":46.865606,"lng":8.654676,"name":"Schattdorf"},{"lat":46.604828,"lng":7.922242,"name":"Wengen"},{"lat":47.082367,"lng":8.439596,"name":"Küssnacht am Rigi"},{"lat":47.123554,"lng":8.193927,"name":"Sempach"},{"lat":46.598513,"lng":7.907164,"name":"Lauterbrunnen"},{"lat":46.634392,"lng":8.596199,"name":"Andermatt"},{"lat":46.996614,"lng":8.60752,"name":"Brunnen"},{"lat":47.057246,"lng":8.53381,"name":"Oberarth"},{"lat":46.999556,"lng":8.610214,"name":"SA Brunnen"},{"lat":47.117963,"lng":8.391937,"name":"Root"},{"lat":47.051341,"lng":8.551972,"name":"Goldau"},{"lat":47.102418,"lng":8.450984,"name":"Küssnacht am Rigi"},{"lat":46.94042,"lng":7.778992,"name":"Langnau i.E."},{"lat":46.488106,"lng":8.269471,"name":"Münster"},{"lat":46.940431,"lng":7.778296,"name":"Langnau Ilfiscenter"},{"lat":47.122421,"lng":7.993333,"name":"Willisau"},{"lat":46.559413,"lng":7.892845,"name":"Mürren"},{"lat":47.127368,"lng":7.997246,"name":"Willisau"},{"lat":47.027954,"lng":8.631398,"name":"Seewen"},{"lat":47.033456,"lng":8.628244,"name":"Seewen-Markt"},{"lat":47.032517,"lng":8.629434,"name":"Seewen, Steinbislin"},{"lat":47.165566,"lng":8.289998,"name":"Hochdorf"},{"lat":47.140661,"lng":8.426829,"name":"Rotkreuz"},{"lat":47.168761,"lng":8.288664,"name":"Hochdorf"},{"lat":47.020311,"lng":8.651657,"name":"Schwyz"},{"lat":46.922559,"lng":7.728712,"name":"Signau"},{"lat":47.147867,"lng":8.434122,"name":"Rotkreuz"},{"lat":47.173002,"lng":8.103356,"name":"Sursee Surseepark"},{"lat":47.178165,"lng":8.126401,"name":"Schenkon"},{"lat":46.717886,"lng":7.714127,"name":"Sigriswil"},{"lat":47.184682,"lng":8.111918,"name":"Schenkon"},{"lat":47.17547,"lng":8.426298,"name":"Hünenberg"},{"lat":47.168992,"lng":7.992642,"name":"Schötz"},{"lat":47.190778,"lng":8.395702,"name":"Sins"},{"lat":47.113357,"lng":7.854047,"name":"Huttwil"},{"lat":47.208051,"lng":8.1905,"name":"Beromünster"},{"lat":46.52855,"lng":8.611729,"name":"Airolo"},{"lat":47.029373,"lng":7.744129,"name":"Sumiswald"},{"lat":47.113798,"lng":7.844024,"name":"Huttwil"},{"lat":47.181132,"lng":8.461893,"name":"Cham Seehof"},{"lat":46.678859,"lng":8.771095,"name":"Sedrun"},{"lat":46.735925,"lng":7.658927,"name":"Hilterfingen"},{"lat":46.689447,"lng":7.675745,"name":"Spiez"},{"lat":47.13805,"lng":8.581525,"name":"Unterägeri Chilematt"},{"lat":47.171505,"lng":8.51433,"name":"City Zug Food"},{"lat":47.171017,"lng":8.516536,"name":"Zug Neustadt"},{"lat":47.186054,"lng":8.475829,"name":"Cham"},{"lat":47.174165,"lng":8.515557,"name":"Zug Bahnhof"},{"lat":47.17792,"lng":8.505501,"name":"Zug Herti"},{"lat":47.224479,"lng":8.262349,"name":"Hitzkirch"},{"lat":46.684498,"lng":7.66792,"name":"Spiez"},{"lat":46.745714,"lng":7.64346,"name":"Hünibach"},{"lat":46.775758,"lng":7.633322,"name":"Steffisburg"},{"lat":47.134995,"lng":8.612466,"name":"Oberägeri"},{"lat":46.760281,"lng":7.631133,"name":"Thun,  Krankenhausstrasse 1"},{"lat":46.906525,"lng":7.638114,"name":"Grosshöchstetten"},{"lat":46.755298,"lng":7.630814,"name":"Thun, Panoramastrasse"},{"lat":46.760584,"lng":7.62739,"name":"City Thun Kyburg Food"},{"lat":47.00532,"lng":7.684425,"name":"Lützelflüh"},{"lat":46.625196,"lng":7.69057,"name":"Reichenbach"},{"lat":47.184909,"lng":8.520101,"name":"Baar Zugerstrasse"},{"lat":47.197189,"lng":8.484861,"name":"Steinhausen"},{"lat":46.758934,"lng":7.624269,"name":"Thun Rexmax"},{"lat":46.909846,"lng":7.631996,"name":"Grosshöchstetten"},{"lat":46.881236,"lng":7.624009,"name":"Konolfingen"},{"lat":46.743421,"lng":7.627383,"name":"Thun, Frutigenstrasse"},{"lat":46.83734,"lng":7.617527,"name":"Oberdiessbach"},{"lat":46.401401,"lng":8.133023,"name":"Fiesch"},{"lat":46.740524,"lng":7.621942,"name":"Thun Strättligen Markt"},{"lat":46.779714,"lng":7.612281,"name":"Heimberg"},{"lat":46.924757,"lng":7.628256,"name":"Biglen"},{"lat":47.21009,"lng":7.985135,"name":"Dagmersellen"},{"lat":46.753479,"lng":7.615115,"name":"Thun Schönau"},{"lat":47.212089,"lng":7.990303,"name":"Dagmersellen"},{"lat":46.397255,"lng":8.131462,"name":"Fiesch"},{"lat":46.783426,"lng":7.608875,"name":"Heimberg Aarestrasse"},{"lat":46.779818,"lng":7.608968,"name":"Blümlisalp"},{"lat":46.779828,"lng":7.608261,"name":"Heimberg Center"},{"lat":47.194854,"lng":8.524314,"name":"Baar Gotthard"},{"lat":46.675378,"lng":7.638044,"name":"Wimmis"},{"lat":47.195909,"lng":8.529747,"name":"Baar Oberdorf"},{"lat":47.237696,"lng":8.074471,"name":"Triengen"},{"lat":46.764565,"lng":7.600595,"name":"Thun Lerchenfeld"},{"lat":47.25163,"lng":8.182447,"name":"Reinach AG"},{"lat":47.178778,"lng":8.588306,"name":"Menzingen"},{"lat":47.017908,"lng":7.660229,"name":"Hasle Rüegsau"},{"lat":46.743488,"lng":7.594931,"name":"Allmendingen"},{"lat":46.704017,"lng":8.849464,"name":"Disentis"},{"lat":46.387789,"lng":8.058708,"name":"Bettmeralp"},{"lat":47.265448,"lng":8.176627,"name":"Reinach AG"},{"lat":46.774758,"lng":7.572292,"name":"Uetendorf"},{"lat":47.165473,"lng":7.798188,"name":"Madiswil"},{"lat":46.869705,"lng":7.563084,"name":"Münsingen"},{"lat":46.875039,"lng":7.563385,"name":"Münsingen"},{"lat":46.378344,"lng":8.033372,"name":"Riederalp"},{"lat":47.271305,"lng":8.343184,"name":"Muri"},{"lat":47.272664,"lng":8.340763,"name":"Muri AG"},{"lat":46.587368,"lng":7.646997,"name":"Frutigen"},{"lat":47.215806,"lng":8.573642,"name":"Baar Sihlbruggstrasse"},{"lat":47.034755,"lng":7.630512,"name":"Oberburg"},{"lat":47.037093,"lng":7.63106,"name":"Oberburg"},{"lat":47.248988,"lng":7.970883,"name":"Reiden"},{"lat":47.266846,"lng":8.424128,"name":"Obfelden"},{"lat":46.928923,"lng":7.561448,"name":"Worb"},{"lat":47.126882,"lng":8.745705,"name":"Einsiedeln"},{"lat":47.132486,"lng":8.744998,"name":"Einsiedeln wissmüli"},{"lat":47.056822,"lng":7.629367,"name":"Burgdorf Schützenmatte"},{"lat":46.895207,"lng":7.545231,"name":"Rubigen"},{"lat":47.295324,"lng":8.242063,"name":"Fahrwangen"},{"lat":47.29571,"lng":8.22775,"name":"Meisterschwanden"},{"lat":46.35678,"lng":8.047103,"name":"Mörel-Filet"},{"lat":47.059064,"lng":7.622847,"name":"Burgdorf Stadt"},{"lat":47.274164,"lng":8.446388,"name":"Affoltern am Albis"},{"lat":47.260394,"lng":7.946699,"name":"Brittnau"},{"lat":47.062987,"lng":7.616357,"name":"Burgdorf"},{"lat":47.284218,"lng":8.453927,"name":"Affoltern am Albis"},{"lat":46.930922,"lng":7.530358,"name":"Rüfenacht"},{"lat":47.21228,"lng":7.79012,"name":"Langenthal Tell"},{"lat":46.768859,"lng":7.509084,"name":"Wattenwil"},{"lat":47.203719,"lng":8.68384,"name":"Richterswil Obermatt"},{"lat":47.203517,"lng":8.685129,"name":"Richterswil"},{"lat":47.311928,"lng":8.114356,"name":"Unterkulm"},{"lat":46.494851,"lng":7.673109,"name":"Kandersteg"},{"lat":47.245315,"lng":8.60835,"name":"Horgen Waldegg"},{"lat":47.245545,"lng":8.607879,"name":"Horgen Waldegg Provisorium"},{"lat":47.308584,"lng":8.051127,"name":"Schöftland"},{"lat":47.279638,"lng":7.927016,"name":"Strengelbach"},{"lat":47.220797,"lng":7.781502,"name":"Langenthal Bäregg"},{"lat":46.860324,"lng":7.493716,"name":"Toffen"},{"lat":46.89319,"lng":7.497673,"name":"Belp"},{"lat":47.242089,"lng":7.821262,"name":"Roggwil"},{"lat":47.195156,"lng":8.723076,"name":"Wollerau"},{"lat":46.933061,"lng":7.506764,"name":"Gümligen"},{"lat":47.217409,"lng":7.768094,"name":"Langenthal"},{"lat":47.259032,"lng":8.59874,"name":"Horgen Leue-Huus"},{"lat":47.208474,"lng":8.705667,"name":"Richterswil Poststrasse"},{"lat":46.933297,"lng":7.503941,"name":"Gümligen Zentrum Moos"},{"lat":47.261044,"lng":8.597225,"name":"Horgen"},{"lat":47.231083,"lng":8.669726,"name":"Wädenswil di alt Fabrik"},{"lat":47.230344,"lng":8.672377,"name":"Wädenswil"},{"lat":47.292235,"lng":7.942626,"name":"Zofingen"},{"lat":47.180266,"lng":7.695532,"name":"Herzogenbuchsee"},{"lat":47.185798,"lng":7.70329,"name":"Herzogenbuchsee"},{"lat":46.80983,"lng":7.479305,"name":"Riggisberg"},{"lat":47.241501,"lng":8.656149,"name":"Au Wädenswil"},{"lat":47.23025,"lng":7.775555,"name":"Aarwangen"},{"lat":47.213915,"lng":7.743704,"name":"Bützberg"},{"lat":47.087624,"lng":7.584042,"name":"Kirchberg"},{"lat":47.077921,"lng":7.574601,"name":"Alchenflüh"},{"lat":47.28952,"lng":8.539751,"name":"Langnau am Albis"},{"lat":47.278227,"lng":8.575391,"name":"Oberrieden"},{"lat":47.072324,"lng":7.568597,"name":"B+H Lyssach"},{"lat":46.959286,"lng":7.500347,"name":"Ostermundigen Rütiweg"},{"lat":46.477832,"lng":8.798541,"name":"Faido"},{"lat":47.285245,"lng":8.564251,"name":"B+H Thalwil"},{"lat":46.931849,"lng":7.484846,"name":"Muri"},{"lat":46.322855,"lng":7.989383,"name":"Naters"},{"lat":47.267057,"lng":7.834946,"name":"Murgenthal"},{"lat":46.973923,"lng":7.496579,"name":"Bolligen"},{"lat":47.272771,"lng":7.841833,"name":"Murgenthal"},{"lat":46.318685,"lng":7.988627,"name":"Brig Zentrum Post"},{"lat":47.288676,"lng":8.573935,"name":"Thalwil"},{"lat":46.910805,"lng":7.470573,"name":"Kehrsatz"},{"lat":46.955651,"lng":7.483632,"name":"Ostermundigen Bahnhofstrasse"},{"lat":46.937744,"lng":7.476447,"name":"Bern Egghölzli"},{"lat":47.347143,"lng":8.244762,"name":"Villmergen"},{"lat":46.315113,"lng":7.986812,"name":"Brig"},{"lat":47.296627,"lng":8.562137,"name":"Thalwil"},{"lat":47.347612,"lng":8.16171,"name":"Seon"},{"lat":47.308568,"lng":7.926157,"name":"Oftringen"},{"lat":47.324181,"lng":8.468472,"name":"Bonstetten"},{"lat":47.279735,"lng":8.615184,"name":"Feldmeilen"},{"lat":46.9454,"lng":7.472761,"name":"Bern Freudenberg"},{"lat":47.350585,"lng":8.270477,"name":"Wohlen"},{"lat":47.350739,"lng":8.269103,"name":"Wohlen Bahnhof"},{"lat":47.268607,"lng":8.646512,"name":"Meilen"},{"lat":46.316305,"lng":8.492514,"name":"Bosco Gurin"},{"lat":47.334085,"lng":8.024959,"name":"Kölliken"},{"lat":46.974227,"lng":7.48169,"name":"Ittigen"},{"lat":47.313027,"lng":8.525316,"name":"Adliswil"},{"lat":47.305861,"lng":8.554172,"name":"Rüschlikon"},{"lat":47.200457,"lng":8.778165,"name":"Pfäffikon SZ Etzelstrasse"},{"lat":47.018663,"lng":7.500875,"name":"Schönbühl Center"},{"lat":47.286236,"lng":8.612842,"name":"Herrliberg"},{"lat":47.018546,"lng":7.500244,"name":"Urtenen-Schönbühl"},{"lat":47.312141,"lng":7.917077,"name":"Oftringen Perry Center"},{"lat":47.02049,"lng":7.49805,"name":"Schönbühl Dorf"},{"lat":47.255445,"lng":8.689723,"name":"Männedorf"},{"lat":47.351651,"lng":8.34857,"name":"Bremgarten"},{"lat":47.305978,"lng":7.888512,"name":"Rothrist"},{"lat":47.262615,"lng":8.677139,"name":"Uetikon"},{"lat":46.961899,"lng":7.465151,"name":"Wankdorf"},{"lat":47.241593,"lng":8.724681,"name":"Stäfa"},{"lat":47.355549,"lng":8.349378,"name":"Bremgarten"},{"lat":46.928538,"lng":7.450455,"name":"Wabern"},{"lat":46.306163,"lng":7.95993,"name":"Brig"},{"lat":47.326264,"lng":8.514248,"name":"Zürich Leimbach"},{"lat":47.200611,"lng":8.794972,"name":"Pfäffikon SZ Seedamm"},{"lat":47.362543,"lng":8.266242,"name":"Wohlen, Raimattstrasse"},{"lat":47.350002,"lng":8.051629,"name":"Oberentfelden"},{"lat":47.313755,"lng":7.893855,"name":"Rothrist"},{"lat":47.049819,"lng":7.506281,"name":"Jegenstorf"},{"lat":47.358673,"lng":8.098971,"name":"Gränichen"},{"lat":46.959275,"lng":7.455007,"name":"Bern Breitenrain"},{"lat":47.327449,"lng":8.529856,"name":"Adliswil"},{"lat":47.32311,"lng":8.548989,"name":"Kilchberg"},{"lat":46.962819,"lng":7.452223,"name":"Bern Standstrasse"},{"lat":47.08522,"lng":7.523656,"name":"Fraubrunnen"},{"lat":46.948112,"lng":7.445967,"name":"City Bern Marktgasse Food"},{"lat":47.361708,"lng":8.367712,"name":"Mutschellen"},{"lat":47.370107,"lng":8.23171,"name":"Dintikon"},{"lat":47.342195,"lng":8.482834,"name":"Coop Stallikon"},{"lat":46.948364,"lng":7.443379,"name":"Bern Spitalgasse"},{"lat":47.363706,"lng":8.091806,"name":"Gränichen"},{"lat":46.949552,"lng":7.442039,"name":"City Bern Ryfflihof Food"},{"lat":47.354083,"lng":8.436409,"name":"Birmensdorf"},{"lat":47.317962,"lng":8.581581,"name":"Küsnacht Dorf"},{"lat":47.360569,"lng":8.051989,"name":"Unterentfelden"},{"lat":46.948931,"lng":7.439925,"name":"Bern Bahnhof"},{"lat":47.000381,"lng":7.461554,"name":"Zollikofen"},{"lat":46.939594,"lng":7.436667,"name":"Bern Sulgenbach"},{"lat":47.131596,"lng":7.556918,"name":"Utzenstorf"},{"lat":46.997135,"lng":7.458555,"name":"Zollikofen"},{"lat":47.310512,"lng":7.847276,"name":"Gunzgen Süd Kappel"},{"lat":47.174189,"lng":7.59917,"name":"Kriegstetten"},{"lat":46.930356,"lng":7.428264,"name":"Köniz Steinhölzli"},{"lat":46.941096,"lng":7.431479,"name":"Bern Eigerplatz"},{"lat":47.340169,"lng":8.530659,"name":"Zürich Wollishofen"},{"lat":47.336224,"lng":7.907304,"name":"Aarburg bei Olten"},{"lat":46.95637,"lng":7.432029,"name":"Bern Zähringerstrasse"},{"lat":46.493102,"lng":7.56037,"name":"Adelboden"},{"lat":46.317925,"lng":8.601783,"name":"Cevio"},{"lat":47.359615,"lng":8.45392,"name":"Birmensdorf"},{"lat":47.381651,"lng":8.239033,"name":"Dottikon"},{"lat":46.780994,"lng":7.408166,"name":"Rüschegg Heubach"},{"lat":46.909764,"lng":7.415969,"name":"Köniz Schliern"},{"lat":46.953896,"lng":7.428719,"name":"Bern Muesmatt"},{"lat":46.296269,"lng":7.914619,"name":"Eyholz Center"},{"lat":47.172374,"lng":7.584444,"name":"Obergerlafingen"},{"lat":47.374293,"lng":8.077304,"name":"Suhr"},{"lat":47.196504,"lng":7.612618,"name":"Subingen"},{"lat":47.131173,"lng":7.537911,"name":"Bätterkinden"},{"lat":46.923293,"lng":7.415477,"name":"Köniz Stapfenmärit"},{"lat":47.346743,"lng":7.921477,"name":"Olten Wilerfeld"},{"lat":47.353718,"lng":7.945708,"name":"Dulliken"},{"lat":47.19143,"lng":8.855868,"name":"Lachen"},{"lat":47.327045,"lng":8.601555,"name":"Küsnacht Itschnach"},{"lat":47.171065,"lng":7.573057,"name":"Gerlafingen"},{"lat":47.234351,"lng":7.656161,"name":"Wangen an der Aare"},{"lat":47.336909,"lng":8.576668,"name":"Zollikon"},{"lat":47.353567,"lng":7.934946,"name":"Dulliken"},{"lat":47.347102,"lng":7.908696,"name":"Olten Sälihof"},{"lat":47.386807,"lng":8.12696,"name":"Hunzenschwil"},{"lat":47.019831,"lng":7.444688,"name":"Münchenbuchsee"},{"lat":47.389942,"lng":8.171423,"name":"Lenzburg"},{"lat":46.943675,"lng":7.411909,"name":"Bern Schlossstrasse"},{"lat":47.198701,"lng":7.598412,"name":"Derendingen"},{"lat":47.360992,"lng":8.506727,"name":"Zürich Arbentalstrasse"},{"lat":46.294245,"lng":7.881404,"name":"Visp, Bahnofplatz"},{"lat":47.026568,"lng":7.444083,"name":"Münchenbuchsee"},{"lat":47.372753,"lng":7.999711,"name":"Schönenwerd"},{"lat":47.373237,"lng":8.001861,"name":"Schönenwerd"},{"lat":47.358068,"lng":8.523189,"name":"Zürich Sihlcity Supermarkt"},{"lat":46.29849,"lng":7.865423,"name":"Visp,  Wehreyering"},{"lat":47.350534,"lng":7.90293,"name":"City Olten"},{"lat":46.943853,"lng":7.406169,"name":"Bern Europaplatz"},{"lat":47.317981,"lng":7.803091,"name":"Egerkingen Gäupark"},{"lat":47.317981,"lng":7.803077,"name":"Egerkingen"},{"lat":46.292372,"lng":7.879702,"name":"Visp Center"},{"lat":47.343381,"lng":7.871082,"name":"Wangen bei Olten"},{"lat":47.196307,"lng":7.586026,"name":"Derendingen"},{"lat":47.334214,"lng":7.841663,"name":"Hägendorf"},{"lat":47.341949,"lng":7.864269,"name":"Wangen bei Olten"},{"lat":46.885441,"lng":7.388322,"name":"Niederscherli"},{"lat":47.304019,"lng":8.691562,"name":"Egg"},{"lat":47.269498,"lng":7.693503,"name":"Niederbipp"},{"lat":47.370501,"lng":8.491982,"name":"Zürich Triemli"},{"lat":47.353372,"lng":8.559083,"name":"Zürich Tiefenbrunnen"},{"lat":47.332706,"lng":8.623391,"name":"Zumikon"},{"lat":47.389721,"lng":8.070244,"name":"Buchs AG"},{"lat":47.18187,"lng":7.563256,"name":"Biberist"},{"lat":47.38503,"lng":8.422313,"name":"Urdorf"},{"lat":47.364952,"lng":8.521038,"name":"Zürich Manessehof"},{"lat":47.400744,"lng":8.215646,"name":"Othmarsingen"},{"lat":47.175695,"lng":8.901946,"name":"Siebnen"},{"lat":47.32147,"lng":7.794741,"name":"Egerkingen"},{"lat":47.273789,"lng":7.693074,"name":"Niederbipp"},{"lat":47.375447,"lng":8.484201,"name":"Zürich A-Park"},{"lat":47.358103,"lng":8.554457,"name":"Zürich Seefeld"},{"lat":46.937786,"lng":7.393408,"name":"Bern Morgenstrasse"},{"lat":47.364415,"lng":8.532188,"name":"Zürich"},{"lat":47.287813,"lng":7.715838,"name":"Oensingen"},{"lat":47.347011,"lng":8.596643,"name":"Zollikerberg Neumünster"},{"lat":46.941348,"lng":7.39175,"name":"Bern Bümpliz"},{"lat":47.373698,"lng":8.50236,"name":"Zürich Gutstrasse"},{"lat":47.392085,"lng":8.050391,"name":"Aarau Bahnhof"},{"lat":47.346122,"lng":8.601852,"name":"Zollikerberg"},{"lat":47.370729,"lng":8.515939,"name":"Zürich Wiedikon"},{"lat":47.391677,"lng":8.045976,"name":"City Aarau Food"},{"lat":47.231625,"lng":8.83674,"name":"Jona Eisenhof"},{"lat":46.950928,"lng":7.3932,"name":"Bern Bethlehem"},{"lat":47.361527,"lng":7.900232,"name":"Trimbach"},{"lat":46.950712,"lng":7.392188,"name":"Bern Bethlehem"},{"lat":47.252851,"lng":7.647491,"name":"Wiedlisbach"},{"lat":47.371372,"lng":8.525075,"name":"Zürich Wiedikon"},{"lat":47.364351,"lng":8.554919,"name":"Zürich Kreuzplatz"},{"lat":47.367091,"lng":8.545907,"name":"City Zürich Bellevue Food"},{"lat":47.366604,"lng":8.547856,"name":"Zürich Stadelhofen"},{"lat":47.398083,"lng":8.062581,"name":"Aarau-Telli"},{"lat":47.370026,"lng":8.537096,"name":"Zürich Bärengasse"},{"lat":47.398025,"lng":8.058209,"name":"Aarau Telli"},{"lat":47.229777,"lng":8.848855,"name":"Jona Center"},{"lat":47.375819,"lng":8.517061,"name":"Zürich Lochergut"},{"lat":47.215986,"lng":7.586899,"name":"Luterbach"},{"lat":47.374452,"lng":8.523747,"name":"Zürich Badenerstrasse"},{"lat":47.373438,"lng":8.528242,"name":"Zürich Badenerstrasse"},{"lat":47.377691,"lng":8.511167,"name":"Zürich Albisriederplatz"},{"lat":47.401913,"lng":8.080841,"name":"Rohr"},{"lat":46.925249,"lng":7.37803,"name":"Niederwangen"},{"lat":47.373445,"lng":8.5304,"name":"Zürich Stauffacher"},{"lat":47.364144,"lng":8.566962,"name":"Zürich Witikonerstr"},{"lat":47.373416,"lng":8.534425,"name":"Zürich Löwenstrasse"},{"lat":47.372925,"lng":8.537818,"name":"City Zürich St. Annahof Food"},{"lat":47.412054,"lng":8.223033,"name":"Mägenwil"},{"lat":47.398128,"lng":8.417865,"name":"Dietikon Brunau"},{"lat":47.367819,"lng":8.56083,"name":"Zürich Römerhof"},{"lat":47.377116,"lng":8.526463,"name":"Zürich Hohlstrasse"},{"lat":47.38456,"lng":8.495942,"name":"Zürich Kiss"},{"lat":47.38976,"lng":8.471991,"name":"Zürich Suteracher"},{"lat":47.387598,"lng":8.485287,"name":"Zürich Lindenplatz"},{"lat":47.387481,"lng":8.489218,"name":"Zürich Altstetten"},{"lat":47.360161,"lng":8.59493,"name":"Zürich Witikonerstrasse"},{"lat":46.948573,"lng":7.377085,"name":"Bern Gäbelbach"},{"lat":47.38636,"lng":8.498772,"name":"Zürich Letzipark"},{"lat":47.403744,"lng":8.402587,"name":"Dietikon Florastrasse"},{"lat":47.203336,"lng":7.558963,"name":"Zuchwil"},{"lat":47.378438,"lng":8.533217,"name":"Zürich Europaallee Passage"},{"lat":47.405818,"lng":8.392197,"name":"Coop Dietikon Steinmürlistr."},{"lat":47.376707,"lng":8.54212,"name":"Zürich Bahnhofbrücke"},{"lat":47.397295,"lng":8.448875,"name":"Schlieren Lilien"},{"lat":47.377777,"lng":8.540289,"name":"Zürich ShopVille HB"},{"lat":47.393353,"lng":8.474485,"name":"Zürich Altstetten"},{"lat":47.405831,"lng":8.403605,"name":"Dietikon Bahnhof"},{"lat":47.398792,"lng":8.006913,"name":"Erlinsbach"},{"lat":47.390999,"lng":8.489168,"name":"Zürich Hohlstrasse"},{"lat":47.40025,"lng":8.441075,"name":"Schlieren Rietpark"},{"lat":47.38585,"lng":8.516893,"name":"Zürich Maagplatz"},{"lat":47.418752,"lng":8.269925,"name":"Mellingen"},{"lat":47.392161,"lng":8.490012,"name":"Zürich Westlink"},{"lat":47.38649,"lng":8.517714,"name":"Zürich-Prime Tower"},{"lat":46.987895,"lng":7.384808,"name":"Uettligen"},{"lat":47.38471,"lng":8.527254,"name":"Zürich Josefstrasse"},{"lat":47.376403,"lng":8.559713,"name":"Zürich Fluntern"},{"lat":46.314966,"lng":7.744218,"name":"Gampel"},{"lat":47.351238,"lng":8.642426,"name":"Ebmatingen Getränkemarkt"},{"lat":47.391232,"lng":8.507942,"name":"Zürich Hard Turm Park"},{"lat":47.382516,"lng":8.547962,"name":"Zürich Universitätstrasse"},{"lat":47.384017,"lng":8.548033,"name":"Zürich Rigiplatz"},{"lat":47.304124,"lng":7.694832,"name":"Klus-Balsthal"},{"lat":46.994913,"lng":9.075389,"name":"Schwanden"},{"lat":47.305947,"lng":8.757469,"name":"Gossau ZH"},{"lat":46.819799,"lng":7.341903,"name":"Schwarzenburg"},{"lat":47.423854,"lng":8.305073,"name":"Niederrohrdorf"},{"lat":47.270128,"lng":8.823329,"name":"Bubikon"},{"lat":47.392623,"lng":8.524647,"name":"Zürich Wipkingerbrücke"},{"lat":47.415097,"lng":8.047992,"name":"Küttigen"},{"lat":47.204696,"lng":7.53843,"name":"Solothurn Rosengarten"},{"lat":47.399623,"lng":8.497287,"name":"Zürich Höngg"},{"lat":47.418303,"lng":8.392182,"name":"Dietikon Silbern"},{"lat":47.428308,"lng":8.275627,"name":"Mellingen"},{"lat":47.422066,"lng":8.368539,"name":"Spreitenbach Shopping Center"},{"lat":47.257336,"lng":8.850019,"name":"Rüti"},{"lat":47.394221,"lng":8.529779,"name":"Zürich Scheffelstrasse"},{"lat":47.392226,"lng":8.538097,"name":"Zürich Hofwiesenstrasse"},{"lat":47.429386,"lng":8.166797,"name":"Holderbank"},{"lat":47.410601,"lng":8.457793,"name":"Oberengstringen"},{"lat":47.40269,"lng":8.498302,"name":"Zürich Hönggermarkt"},{"lat":47.207623,"lng":7.534344,"name":"Solothurn Westring"},{"lat":47.395721,"lng":8.540461,"name":"Zürich Milchbuck"},{"lat":47.422558,"lng":8.410482,"name":"Geroldswil"},{"lat":47.316582,"lng":7.694759,"name":"Balsthal"},{"lat":47.04017,"lng":9.069598,"name":"Glarus"},{"lat":47.41378,"lng":8.479546,"name":"Zürich Rütihof"},{"lat":47.408008,"lng":8.507881,"name":"Zürich ETH Hönggerberg"},{"lat":47.408008,"lng":8.507881,"name":"Zürich ETH Hönggerberg"},{"lat":47.068575,"lng":9.057374,"name":"Netstal"},{"lat":47.067388,"lng":9.058654,"name":"Netstal Wiggispark"},{"lat":47.167397,"lng":8.980024,"name":"Reichenburg"},{"lat":47.041035,"lng":7.378978,"name":"Schüpfen"},{"lat":47.208086,"lng":7.515879,"name":"Solothurn Brühl"},{"lat":46.439574,"lng":8.95296,"name":"Dongio"},{"lat":46.89002,"lng":7.316912,"name":"Flamatt"},{"lat":47.407258,"lng":8.550173,"name":"Zürich Dorflinde"},{"lat":47.345049,"lng":8.730682,"name":"Uster Oberuster"},{"lat":47.351588,"lng":8.716201,"name":"Uster Bahnhof"},{"lat":47.418868,"lng":8.505594,"name":"Zürich Wehntalerstrasse"},{"lat":46.889702,"lng":7.314092,"name":"Flamatt"},{"lat":47.211088,"lng":7.505614,"name":"Bellach"},{"lat":47.410377,"lng":8.546674,"name":"City Zürich Oerlikon Food"},{"lat":47.397415,"lng":8.594493,"name":"Zürich-Stettbach"},{"lat":47.41125,"lng":8.544731,"name":"Zürich Hofwiesenstrasse"},{"lat":47.220086,"lng":7.515104,"name":"Langendorf"},{"lat":47.404854,"lng":8.571746,"name":"Zürich Schwamendingen"},{"lat":47.443608,"lng":8.361928,"name":"Würenlos"},{"lat":47.450882,"lng":8.215238,"name":"Lupfig"},{"lat":47.413583,"lng":8.541612,"name":"Zürich Eleven"},{"lat":47.306563,"lng":8.817925,"name":"Hinwil"},{"lat":47.306626,"lng":8.817954,"name":"Hinwil Wässeri"},{"lat":47.342088,"lng":7.703615,"name":"Mümliswil"},{"lat":47.425478,"lng":8.496886,"name":"Zürich Mühlackerstrasse"},{"lat":47.240742,"lng":8.919882,"name":"Eschenbach"},{"lat":47.44915,"lng":8.328464,"name":"Neuenhof"},{"lat":47.431379,"lng":8.469007,"name":"Regensdorf Zentrum"},{"lat":47.394924,"lng":8.617541,"name":"Dübendorf Leepüntstrasse"},{"lat":47.403521,"lng":8.589193,"name":"Zürich Hirzenbachstrasse"},{"lat":47.413974,"lng":8.551453,"name":"Zürich Main Tower"},{"lat":47.411086,"lng":8.562669,"name":"Zürich Precisa"},{"lat":47.299129,"lng":8.837649,"name":"Hinwil Hiwi-Märt"},{"lat":47.212649,"lng":7.4966,"name":"Bellach"},{"lat":47.397326,"lng":8.616601,"name":"Dübendorf"},{"lat":47.306761,"lng":7.628911,"name":"Matzendorf"},{"lat":47.38251,"lng":8.667621,"name":"Volketswil Volkiland"},{"lat":46.89405,"lng":7.301813,"name":"Neuenegg"},{"lat":47.326234,"lng":8.797728,"name":"Wetzikon"},{"lat":47.437389,"lng":8.474877,"name":"Regensdorf Rägi Märt"},{"lat":47.421449,"lng":8.549647,"name":"Zürich Seebach"},{"lat":47.409487,"lng":8.596212,"name":"Wallisellen Richti-Shopping"},{"lat":47.424953,"lng":8.537792,"name":"Zürich Schwellistrasse"},{"lat":47.381489,"lng":8.681543,"name":"Volketswil Brunnenstrasse"},{"lat":46.555884,"lng":7.373528,"name":"Zweisimmen"},{"lat":47.458746,"lng":8.329765,"name":"Wettingen Tägipark"},{"lat":47.413048,"lng":8.592725,"name":"Wallisellen"},{"lat":47.127192,"lng":9.055323,"name":"Niederurnen"},{"lat":47.443623,"lng":8.465757,"name":"Regensdorf"},{"lat":46.311441,"lng":7.643967,"name":"Susten"},{"lat":47.424438,"lng":8.560552,"name":"Lindbergh Allee"},{"lat":47.137926,"lng":9.050769,"name":"Autobahnraststätte A3 Glarus"},{"lat":47.461998,"lng":8.336119,"name":"Wettingen"},{"lat":47.388774,"lng":8.679156,"name":"Volketswil, Lindenstrasse"},{"lat":47.388318,"lng":8.680603,"name":"Volketswil Zentrum"},{"lat":46.739972,"lng":7.290074,"name":"Plaffeien"},{"lat":47.466608,"lng":8.291496,"name":"Baden Mellingerstrasse"},{"lat":46.45678,"lng":7.442672,"name":"Lenk"},{"lat":46.37506,"lng":8.918481,"name":"Bodio"},{"lat":47.225196,"lng":8.970162,"name":"Uznach Linthpark"},{"lat":47.332036,"lng":8.81218,"name":"Wetzikon"},{"lat":47.412841,"lng":8.616825,"name":"Dietlikon"},{"lat":47.412769,"lng":8.618612,"name":"Dietlikon Center"},{"lat":47.428401,"lng":8.563697,"name":"Opfikon"},{"lat":47.467246,"lng":8.325105,"name":"Wettingen"},{"lat":47.430677,"lng":8.559994,"name":"Glattbrugg Bahnhof"},{"lat":47.204387,"lng":7.456296,"name":"Selzach"},{"lat":47.273637,"lng":8.914595,"name":"Wald ZH"},{"lat":47.457734,"lng":8.438245,"name":"Buchs ZH"},{"lat":47.474443,"lng":8.213247,"name":"Windisch"},{"lat":46.412829,"lng":8.977384,"name":"Malvaglia"},{"lat":47.434268,"lng":8.567148,"name":"Glattbrugg"},{"lat":47.419096,"lng":8.624398,"name":"Brüttisellen"},{"lat":47.475779,"lng":8.307696,"name":"City Baden Food"},{"lat":47.421925,"lng":8.618656,"name":"Dietlikon Bahnhofstrasse"},{"lat":47.476404,"lng":8.307109,"name":"Baden Bahnhof"},{"lat":46.24555,"lng":8.705427,"name":"Maggia"},{"lat":47.394413,"lng":7.748671,"name":"Oberdorf"},{"lat":47.48171,"lng":8.210685,"name":"Brugg Campus"},{"lat":47.482268,"lng":8.209261,"name":"Brugg Neumarkt"},{"lat":47.13979,"lng":7.377748,"name":"Büren"},{"lat":47.483364,"lng":8.241293,"name":"Gebenstorf"},{"lat":47.368913,"lng":8.782066,"name":"Pfäffikon ZH"},{"lat":47.200421,"lng":7.424622,"name":"Bettlach"},{"lat":46.772914,"lng":9.200023,"name":"Ilanz"},{"lat":47.488975,"lng":8.244084,"name":"Gebenstorf"},{"lat":47.487953,"lng":8.288813,"name":"Nussbaumen"},{"lat":47.449473,"lng":8.561291,"name":"Flughafen ZH"},{"lat":47.335205,"lng":8.855162,"name":"Bäretswil"},{"lat":47.488596,"lng":8.291889,"name":"Nussbaumen"},{"lat":46.854765,"lng":7.24958,"name":"Schmitten"},{"lat":47.450719,"lng":8.562617,"name":"Coop Zürich Flughafen"},{"lat":47.386846,"lng":8.755034,"name":"Fehraltorf"},{"lat":47.463182,"lng":8.526285,"name":"Rümlang Riedmatt"},{"lat":47.193959,"lng":7.404447,"name":"Grenchen"},{"lat":46.19559,"lng":7.840199,"name":"Grächen"},{"lat":47.453157,"lng":8.580956,"name":"Kloten Center"},{"lat":47.192373,"lng":7.397296,"name":"Grenchen"},{"lat":47.49435,"lng":8.340871,"name":"Ehrendingen"},{"lat":47.450406,"lng":8.597062,"name":"Kloten"},{"lat":47.09953,"lng":7.320941,"name":"Busswil"},{"lat":47.076594,"lng":7.306153,"name":"Lyss Bahnhof"},{"lat":47.442603,"lng":8.631127,"name":"Coop Bassersdorf"},{"lat":47.072749,"lng":7.302594,"name":"Lyss Stigli"},{"lat":47.233361,"lng":9.020363,"name":"Gommiswald"},{"lat":47.077392,"lng":7.303847,"name":"Lyss Bielstrasse"},{"lat":47.501966,"lng":8.255111,"name":"Untersiggenthal"},{"lat":46.903131,"lng":7.237795,"name":"Laupen"},{"lat":47.483574,"lng":8.466156,"name":"Dielsdorf"},{"lat":47.483574,"lng":8.466156,"name":"Dielsdorf"},{"lat":47.428383,"lng":8.684758,"name":"Effretikon Effimärt"},{"lat":47.426791,"lng":8.692223,"name":"Effretikon Watt"},{"lat":47.050669,"lng":7.283146,"name":"Aarberg"},{"lat":47.042456,"lng":7.276433,"name":"Aarberg"},{"lat":46.358082,"lng":8.971987,"name":"Biasca"},{"lat":47.181924,"lng":7.36646,"name":"Lengnau"},{"lat":46.815729,"lng":7.216606,"name":"Tafers"},{"lat":47.464929,"lng":7.851711,"name":"Gelterkinden"},{"lat":47.465082,"lng":7.846778,"name":"Gelterkinden"},{"lat":47.49123,"lng":8.5039,"name":"Niederglatt"},{"lat":47.112982,"lng":7.301016,"name":"Studen"},{"lat":46.296423,"lng":7.550092,"name":"Sierre"},{"lat":47.463476,"lng":7.813662,"name":"Sissach"},{"lat":47.509028,"lng":8.019214,"name":"Frick"},{"lat":47.525784,"lng":8.245983,"name":"Würenlingen Aarepark"},{"lat":47.526229,"lng":8.242909,"name":"Würenlingen"},{"lat":47.512279,"lng":8.016714,"name":"Frick"},{"lat":47.393687,"lng":7.620413,"name":"Nunningen"},{"lat":46.293865,"lng":7.534877,"name":"Sierre"},{"lat":47.449961,"lng":8.701494,"name":"Kemptthal"},{"lat":46.850371,"lng":7.190698,"name":"Düdingen"},{"lat":46.815282,"lng":9.267728,"name":"Laax"},{"lat":47.454608,"lng":7.736225,"name":"Bubendorf"},{"lat":46.312238,"lng":7.484112,"name":"Crans-Montana"},{"lat":47.506121,"lng":8.541831,"name":"Bachenbülach"},{"lat":46.810618,"lng":7.17736,"name":"Fribourg"},{"lat":46.124183,"lng":7.937078,"name":"Saas Grund"},{"lat":46.186161,"lng":8.734915,"name":"Verscio"},{"lat":46.808936,"lng":7.173739,"name":"Fribourg Schönberg"},{"lat":46.836182,"lng":9.282979,"name":"Flims"},{"lat":47.162013,"lng":7.294125,"name":"Biel Boujean"},{"lat":46.972416,"lng":7.193473,"name":"Kerzers"},{"lat":47.472941,"lng":7.758692,"name":"Lausen"},{"lat":46.281035,"lng":7.512734,"name":"Sierre Rossfeld"},{"lat":47.149291,"lng":7.277758,"name":"Biel-Mett"},{"lat":47.472617,"lng":7.755387,"name":"Lausen"},{"lat":47.143419,"lng":7.272278,"name":"Biel Mett"},{"lat":46.28074,"lng":7.510631,"name":"Sierre, Rte de Sion 115"},{"lat":46.307638,"lng":7.467844,"name":"Crans-Sur-Sierre"},{"lat":47.160638,"lng":7.280968,"name":"Biel Solothurnstr."},{"lat":47.15474,"lng":7.276225,"name":"Biel Bözingen"},{"lat":46.773592,"lng":7.161998,"name":"Marly"},{"lat":47.126699,"lng":7.255487,"name":"Biel Moserstrasse"},{"lat":47.129244,"lng":7.255676,"name":"Biel-Brügg"},{"lat":46.476562,"lng":7.282566,"name":"Gstaad"},{"lat":47.280077,"lng":7.389655,"name":"Moutier"},{"lat":47.51107,"lng":8.594188,"name":"Embrach"},{"lat":46.819836,"lng":7.153794,"name":"Granges-Paccot"},{"lat":47.119176,"lng":7.243152,"name":"Port"},{"lat":46.803055,"lng":7.152179,"name":"City Fribourg Food"},{"lat":47.456453,"lng":8.773877,"name":"Kollbrunn"},{"lat":46.80341,"lng":7.150042,"name":"Fribourg Gare"},{"lat":46.794712,"lng":7.150259,"name":"Fribourg"},{"lat":46.107459,"lng":7.927006,"name":"Saas Fee"},{"lat":46.780148,"lng":7.150337,"name":"Marly"},{"lat":47.516742,"lng":8.594603,"name":"Embrach"},{"lat":47.130241,"lng":7.243771,"name":"Biel Bahnhof"},{"lat":47.13025,"lng":7.243758,"name":"Biel, Bahnhofspassage"},{"lat":47.124784,"lng":7.23989,"name":"Nidau"},{"lat":46.826977,"lng":7.146023,"name":"Granges-Paccot"},{"lat":47.138621,"lng":7.247049,"name":"Biel Nidaugasse"},{"lat":46.809458,"lng":7.144206,"name":"Fribourg Jura"},{"lat":47.133028,"lng":7.242917,"name":"Biel-Bahnhof"},{"lat":47.139808,"lng":7.246913,"name":"City Biel - Bienne Food"},{"lat":47.277656,"lng":7.369172,"name":"Moutier"},{"lat":47.483985,"lng":7.735262,"name":"Liestal Stabhof"},{"lat":47.484516,"lng":7.73143,"name":"Liestal"},{"lat":47.490811,"lng":8.706167,"name":"Winterthur Töss"},{"lat":46.167281,"lng":8.762475,"name":"Losone Mezzana"},{"lat":47.560239,"lng":8.061149,"name":"Laufenburg"},{"lat":47.440086,"lng":8.84411,"name":"Turbenthal"},{"lat":47.407086,"lng":7.542956,"name":"Breitenbach"},{"lat":47.546373,"lng":7.952314,"name":"Stein AG"},{"lat":47.530947,"lng":8.580715,"name":"Rorbas"},{"lat":46.164699,"lng":8.768588,"name":"Losone Ipermercato Cattori"},{"lat":46.169293,"lng":8.781041,"name":"Locarno Solduno"},{"lat":47.494934,"lng":8.712463,"name":"Winterthur Lokwerk"},{"lat":46.165521,"lng":8.77292,"name":"Losone"},{"lat":47.572292,"lng":8.248869,"name":"Kleindöttingen"},{"lat":46.727328,"lng":7.136949,"name":"Treyvaux"},{"lat":46.698011,"lng":7.140211,"name":"La Roche"},{"lat":47.265435,"lng":9.121308,"name":"Ebnat-Kappel"},{"lat":46.798385,"lng":7.124343,"name":"Villars-sur-Glâne"},{"lat":46.169139,"lng":8.794673,"name":"Locarno Piazza Grande"},{"lat":46.798069,"lng":7.123807,"name":"Villars-sur-Glâne"},{"lat":47.484592,"lng":8.758805,"name":"Winterthur Seen"},{"lat":46.174881,"lng":8.812416,"name":"Minusio"},{"lat":46.619333,"lng":7.160646,"name":"Charmey"},{"lat":47.499159,"lng":8.723236,"name":"City Winterthur Food"},{"lat":47.441734,"lng":7.589397,"name":"Grellingen"},{"lat":47.510237,"lng":8.691574,"name":"Winterthur Wülflingen"},{"lat":47.303204,"lng":9.086299,"name":"Wattwil"},{"lat":47.525978,"lng":7.81555,"name":"Magden"},{"lat":47.500294,"lng":8.723953,"name":"Winterthur Stadttor"},{"lat":46.15565,"lng":8.771475,"name":"Ascona"},{"lat":46.176322,"lng":8.821907,"name":"Minusio"},{"lat":47.556856,"lng":8.502757,"name":"Glattfelden"},{"lat":47.500569,"lng":8.725898,"name":"Winterthur Stadtgarten"},{"lat":47.516292,"lng":8.679767,"name":"Winterthur-Wülflingen"},{"lat":47.306906,"lng":9.087234,"name":"Wattwil "},{"lat":47.502223,"lng":7.721467,"name":"Frenkendorf"},{"lat":47.494951,"lng":8.756713,"name":"Winterthur"},{"lat":47.508466,"lng":8.717885,"name":"Winterthur Feldstrasse"},{"lat":47.494923,"lng":8.758385,"name":"Winterthur Grüzemarkt"},{"lat":47.526186,"lng":8.668896,"name":"Neftenbach"},{"lat":46.926769,"lng":7.115031,"name":"Murten"},{"lat":47.589043,"lng":8.292186,"name":"Bad Zurzach"},{"lat":47.23789,"lng":7.278098,"name":"Bévilard-Malleray"},{"lat":46.824049,"lng":7.09907,"name":"Belfaux FR"},{"lat":46.296488,"lng":7.396563,"name":"Anzère"},{"lat":46.174745,"lng":8.855501,"name":"Tenero"},{"lat":47.419122,"lng":7.502098,"name":"Laufen"},{"lat":47.225502,"lng":9.199318,"name":"Nesslau"},{"lat":47.503984,"lng":8.770729,"name":"Winterthur Hegi"},{"lat":47.509053,"lng":8.758523,"name":"Winterthur Oberi"},{"lat":47.469238,"lng":7.595523,"name":"Aesch"},{"lat":47.439044,"lng":7.529338,"name":"Zwingen"},{"lat":46.780793,"lng":7.088068,"name":"Matran"},{"lat":46.780801,"lng":7.088016,"name":"Matran"},{"lat":47.498414,"lng":8.797203,"name":"Räterschen"},{"lat":47.340852,"lng":7.3713,"name":"Courrendlin"},{"lat":46.175056,"lng":7.573424,"name":"Grimentz"},{"lat":46.252789,"lng":9.022742,"name":"Claro"},{"lat":47.581541,"lng":8.515987,"name":"Hüntwangen"},{"lat":47.551964,"lng":7.803446,"name":"Rheinfelden"},{"lat":46.174961,"lng":8.891601,"name":"Riazzino PY"},{"lat":47.563366,"lng":7.842218,"name":"Möhlin"},{"lat":47.520209,"lng":7.691292,"name":"Pratteln Bahnhof"},{"lat":47.552468,"lng":7.791706,"name":"Rheinfelden"},{"lat":47.488665,"lng":7.608796,"name":"Dornach"},{"lat":47.005129,"lng":7.103527,"name":"Ins"},{"lat":47.48996,"lng":7.608681,"name":"Arlesheim"},{"lat":47.495024,"lng":7.620468,"name":"Arlesheim"},{"lat":47.522638,"lng":7.690786,"name":"Pratteln Bahnhof"},{"lat":47.538144,"lng":7.732682,"name":"Kaiseraugst"},{"lat":47.361498,"lng":7.377349,"name":"Courroux"},{"lat":47.538217,"lng":7.732031,"name":"Kaiseraugst"},{"lat":47.536998,"lng":8.734086,"name":"Seuzach"},{"lat":47.525047,"lng":7.683255,"name":"Pratteln"},{"lat":47.527559,"lng":7.690278,"name":"Pratteln Grüssen"},{"lat":46.251469,"lng":7.408086,"name":"Uvrier"},{"lat":47.523001,"lng":8.787699,"name":"Wiesendangen"},{"lat":47.493759,"lng":7.593326,"name":"Reinach BL"},{"lat":46.261609,"lng":7.387809,"name":"Grimisuat"},{"lat":47.493901,"lng":8.865095,"name":"Elgg"},{"lat":47.123443,"lng":9.314547,"name":"Walenstadt"},{"lat":46.603006,"lng":7.10081,"name":"Broc"},{"lat":46.811978,"lng":9.401271,"name":"Bonaduz"},{"lat":47.231964,"lng":7.214322,"name":"Reconvilier"},{"lat":47.230746,"lng":7.212518,"name":"Reconvilier"},{"lat":47.362236,"lng":7.35094,"name":"Delémont, Gare CFF Delemont"},{"lat":47.506135,"lng":7.599826,"name":"Reinach Surbaum"},{"lat":47.195036,"lng":7.177964,"name":"Sonceboz"},{"lat":47.482462,"lng":7.545743,"name":"Ettingen"},{"lat":47.527617,"lng":7.647495,"name":"Muttenz Dorf"},{"lat":47.090783,"lng":9.345061,"name":"Flums"},{"lat":47.063829,"lng":7.096617,"name":"La Neuveville"},{"lat":47.364805,"lng":7.347057,"name":"Delémont"},{"lat":46.067406,"lng":7.776034,"name":"Täsch"},{"lat":46.391243,"lng":9.232785,"name":"Mesocco"},{"lat":47.361688,"lng":7.3401,"name":"Delemont R.D.Stand"},{"lat":47.49266,"lng":8.899662,"name":"Aadorf"},{"lat":47.493432,"lng":8.898396,"name":"Aadorf"},{"lat":47.521297,"lng":7.607121,"name":"Münchenstein Gartenstadt"},{"lat":46.223254,"lng":9.047329,"name":"Castione"},{"lat":47.499111,"lng":7.55451,"name":"Therwil"},{"lat":46.209503,"lng":9.027159,"name":"Bellinzona SA Nord"},{"lat":46.601199,"lng":7.074798,"name":"Bulle"},{"lat":46.876554,"lng":7.032375,"name":"Avenches Milavy"},{"lat":46.876598,"lng":7.032112,"name":"Avenches"},{"lat":46.185773,"lng":8.992528,"name":"Sementina"},{"lat":47.534116,"lng":7.628941,"name":"Muttenz"},{"lat":47.503958,"lng":7.554719,"name":"Therwil"},{"lat":46.625016,"lng":7.060066,"name":"Bulle Le Caro"},{"lat":47.535746,"lng":7.627367,"name":"Muttenz Freidorf"},{"lat":46.474461,"lng":7.133564,"name":"Château-d'Oex"},{"lat":47.507593,"lng":7.553718,"name":"Oberwil Mühlematt"},{"lat":47.056997,"lng":7.068876,"name":"Le Landeron"},{"lat":46.202245,"lng":9.030822,"name":"Bellinzona Nord"},{"lat":46.619385,"lng":7.057376,"name":"Bulle Ville"},{"lat":46.152028,"lng":8.942398,"name":"Cadenazzo, Via Stazione"},{"lat":46.202924,"lng":9.034963,"name":"Bellinzona San Gottardo"},{"lat":46.250205,"lng":7.348958,"name":"Savièse"},{"lat":46.182244,"lng":9.001754,"name":"Bellinzona SA Süd"},{"lat":46.630183,"lng":7.050157,"name":"Bulle Les Combes"},{"lat":47.462874,"lng":8.996342,"name":"Sirnach"},{"lat":46.194718,"lng":9.024798,"name":"Bellinzona Centro"},{"lat":47.196749,"lng":9.310427,"name":"Unterwasser"},{"lat":47.533658,"lng":7.604491,"name":"Basel, Reinacherstrasse"},{"lat":47.514487,"lng":7.557862,"name":"Oberwil"},{"lat":47.54074,"lng":7.620292,"name":"Coop Basel St. Jakob-Park"},{"lat":46.228156,"lng":7.373712,"name":"Sion"},{"lat":47.539608,"lng":7.613767,"name":"Basel St. Jakob"},{"lat":46.183761,"lng":9.012393,"name":"Bellinzona PY"},{"lat":47.489232,"lng":7.500404,"name":"Flüh"},{"lat":47.534214,"lng":7.593152,"name":"Basel Hauenstein"},{"lat":46.154546,"lng":8.965939,"name":"S. Antonino"},{"lat":46.231271,"lng":7.362755,"name":"City Sion Food"},{"lat":47.019883,"lng":7.041813,"name":"Gals"},{"lat":47.526927,"lng":7.572907,"name":"Bottmingen"},{"lat":47.439121,"lng":9.056269,"name":"Kirchberg"},{"lat":46.836966,"lng":9.452482,"name":"Domat-Ems"},{"lat":47.497841,"lng":8.953603,"name":"Wängi"},{"lat":46.173758,"lng":9.010356,"name":"Giubiasco"},{"lat":47.542014,"lng":7.597637,"name":"Basel Güterstrasse"},{"lat":46.226115,"lng":7.360675,"name":"Sion sous Gare"},{"lat":46.697238,"lng":9.43972,"name":"Thusis"},{"lat":47.55287,"lng":7.621808,"name":"Birsfelden"},{"lat":47.479284,"lng":8.995589,"name":"Münchwilen"},{"lat":47.479338,"lng":8.995564,"name":"Münchwilen"},{"lat":46.697504,"lng":9.442555,"name":"Thusis"},{"lat":47.542992,"lng":7.593111,"name":"Basel Gundeli"},{"lat":47.447047,"lng":9.053022,"name":"Rickenbach"},{"lat":47.337862,"lng":7.252844,"name":"Bassecourt"},{"lat":47.549592,"lng":7.606706,"name":"Basel Hardstrasse"},{"lat":47.555203,"lng":7.613738,"name":"Basel Breite"},{"lat":47.545381,"lng":7.588655,"name":"Basel Südpark"},{"lat":47.545688,"lng":7.588005,"name":"Rail City Basel SBB"},{"lat":47.542031,"lng":7.57786,"name":"Binningen"},{"lat":47.539923,"lng":7.572754,"name":"Binningen"},{"lat":47.047319,"lng":9.420801,"name":"Mels Dorf"},{"lat":47.547879,"lng":7.590574,"name":"Basel Bahnhof SBB"},{"lat":47.45845,"lng":9.048129,"name":"Wil"},{"lat":47.551786,"lng":7.594597,"name":"Basel Aeschenplatz"},{"lat":46.238459,"lng":9.130611,"name":"Roveredo GR"},{"lat":47.520365,"lng":8.935016,"name":"Matzingen"},{"lat":47.526197,"lng":8.922895,"name":"Matzingen"},{"lat":46.617538,"lng":7.020665,"name":"Vuadens"},{"lat":47.464994,"lng":9.045289,"name":"Wil Stadtmarkt"},{"lat":47.565099,"lng":7.617904,"name":"Basel Bäumlihof"},{"lat":47.570795,"lng":7.632913,"name":"Riehen Rauracher"},{"lat":47.551327,"lng":7.580621,"name":"Basel Bachletten"},{"lat":47.555245,"lng":7.589984,"name":"Basel Centralhalle"},{"lat":47.555649,"lng":7.590796,"name":"City Basel Pfauen Food"},{"lat":47.04037,"lng":9.434969,"name":"Mels Pizolcenter"},{"lat":47.040572,"lng":9.435253,"name":"Mels"},{"lat":47.546551,"lng":7.56512,"name":"Basel Neuweilerplatz"},{"lat":47.55203,"lng":8.878773,"name":"Frauenfeld,  Zürcherstrasse"},{"lat":47.57563,"lng":7.634938,"name":"Riehen"},{"lat":47.557515,"lng":7.587254,"name":"City Basel Marktplatz Food"},{"lat":46.845777,"lng":9.478753,"name":"Felsberg"},{"lat":47.563294,"lng":7.597329,"name":"Basel Europe"},{"lat":47.56739,"lng":7.607148,"name":"Basel Badischer BHF"},{"lat":47.559584,"lng":7.587193,"name":"Basel Fischmärt"},{"lat":46.023506,"lng":7.748374,"name":"Zermatt"},{"lat":47.585046,"lng":7.650605,"name":"Riehen Schmiedgasse"},{"lat":47.570327,"lng":7.609868,"name":"Basel Schorenweg"},{"lat":47.047396,"lng":9.440721,"name":"Sargans"},{"lat":47.567327,"lng":7.601061,"name":"Basel Mattenstrasse"},{"lat":47.551798,"lng":7.562409,"name":"Basel Wanderstrasse"},{"lat":47.372309,"lng":9.195321,"name":"Degersheim"},{"lat":47.556392,"lng":7.571839,"name":"Basel Allschwilerstrasse"},{"lat":47.012174,"lng":6.999996,"name":"Marin"},{"lat":47.54729,"lng":7.545861,"name":"Allschwil Letten Center"},{"lat":47.560659,"lng":7.57573,"name":"Basel Spalemärt"},{"lat":47.554098,"lng":8.896873,"name":"Frauenfeld Schlosspark"},{"lat":47.569104,"lng":7.590635,"name":"Basel Klybeck"},{"lat":47.56021,"lng":7.567371,"name":"Basel Helvetiaplatz"},{"lat":47.593986,"lng":7.655094,"name":"Riehen Lörracher"},{"lat":47.561225,"lng":8.887288,"name":"Frauenfeld Fallengatter"},{"lat":47.558519,"lng":7.559874,"name":"Allschwil Lindenplatz"},{"lat":46.108364,"lng":7.501014,"name":"Evolène"},{"lat":47.551416,"lng":7.538191,"name":"Allschwil Dorf"},{"lat":46.224002,"lng":7.304714,"name":"Conthey"},{"lat":47.569127,"lng":7.579672,"name":"Basel Elsässerstrasse"},{"lat":46.224612,"lng":7.303326,"name":"Conthey"},{"lat":47.223127,"lng":7.098741,"name":"Tramelan"},{"lat":47.557443,"lng":7.546918,"name":"Allschwil"},{"lat":47.578288,"lng":7.59647,"name":"Basel Hochbergerstrasse"},{"lat":47.013473,"lng":6.984756,"name":"Saint-Blaise"},{"lat":47.576766,"lng":7.591016,"name":"Basel Wiesenplatz"},{"lat":47.573111,"lng":7.579948,"name":"Basel Novartis Campus"},{"lat":47.565954,"lng":7.562336,"name":"Basel Michelbacher"},{"lat":47.570681,"lng":7.573802,"name":"Basel Volta Zentrum"},{"lat":46.352458,"lng":7.152983,"name":"Les Diablerets"},{"lat":46.223965,"lng":7.295797,"name":"Conthey Bassin"},{"lat":47.435348,"lng":9.138093,"name":"Uzwil"},{"lat":47.435457,"lng":9.138017,"name":"Uzwil"},{"lat":47.316519,"lng":9.281924,"name":"Urnäsch"},{"lat":47.417444,"lng":9.169677,"name":"Flawil"},{"lat":46.84746,"lng":9.508287,"name":"Chur West"},{"lat":47.567418,"lng":8.90633,"name":"Frauenfeld Allmendcenter"},{"lat":47.567223,"lng":8.908185,"name":"Langfeldstr. Frauenfeld"},{"lat":46.822116,"lng":6.941864,"name":"Payerne"},{"lat":47.445643,"lng":9.139708,"name":"Niederuzwil"},{"lat":47.414069,"lng":9.185353,"name":"Flawil"},{"lat":46.85762,"lng":9.520169,"name":"Chur Kurfirsten"},{"lat":46.847201,"lng":9.524041,"name":"Chur"},{"lat":47.689584,"lng":8.495977,"name":"Neunkirch"},{"lat":47.008681,"lng":9.496972,"name":"Bad Ragaz"},{"lat":47.473171,"lng":9.112539,"name":"Zuzwil Herbergmarkt"},{"lat":46.8591,"lng":9.526812,"name":"Chur Tittwiesen"},{"lat":47.003333,"lng":9.50216,"name":"Bad Ragaz"},{"lat":46.825166,"lng":6.92569,"name":"Payerne"},{"lat":46.853155,"lng":9.529152,"name":"Chur"},{"lat":47.69786,"lng":8.460611,"name":"Hallau"},{"lat":46.852864,"lng":9.532275,"name":"City Chur Food"},{"lat":46.852443,"lng":9.534594,"name":"Chur Quader"},{"lat":46.995383,"lng":6.943219,"name":"Neuchâtel Maladière"},{"lat":46.061944,"lng":8.929178,"name":"Taverne"},{"lat":47.680135,"lng":8.606475,"name":"Neuhausen Schützengut"},{"lat":47.011597,"lng":9.511924,"name":"Maienfeld"},{"lat":47.357866,"lng":9.285459,"name":"Waldstatt"},{"lat":46.996239,"lng":6.93527,"name":"Neuchâtel"},{"lat":47.153488,"lng":7.000012,"name":"Saint-Imier"},{"lat":47.066166,"lng":9.498232,"name":"Balzers"},{"lat":46.779252,"lng":9.544203,"name":"Churwalden"},{"lat":47.682841,"lng":8.619974,"name":"Neuhausen Posthof"},{"lat":47.068581,"lng":9.497495,"name":"Balzers"},{"lat":46.989937,"lng":6.930097,"name":"City Neuchâtel Food"},{"lat":46.990574,"lng":6.929684,"name":"Neuchâtel La Treille"},{"lat":46.182443,"lng":7.290713,"name":"Nendaz"},{"lat":46.068529,"lng":8.968213,"name":"Tesserete"},{"lat":47.696198,"lng":8.575735,"name":"Beringen"},{"lat":47.376869,"lng":9.279151,"name":"Herisau"},{"lat":47.092371,"lng":9.496592,"name":"Trübbach"},{"lat":46.692931,"lng":6.913964,"name":"Romont"},{"lat":47.694104,"lng":8.604625,"name":"Beringen"},{"lat":47.418201,"lng":9.235671,"name":"Gossau Eichen"},{"lat":47.365527,"lng":7.154837,"name":"Saint-Ursanne"},{"lat":47.684131,"lng":8.661386,"name":"Langwiesen"},{"lat":47.386449,"lng":9.278687,"name":"Herisau"},{"lat":47.122579,"lng":9.489949,"name":"Sevelen"},{"lat":47.166941,"lng":9.466477,"name":"Buchs SG"},{"lat":47.69069,"lng":8.647417,"name":"Feuerthalen Rhymarkt"},{"lat":46.988209,"lng":6.90987,"name":"Neuchâtel Vauseyon"},{"lat":46.761778,"lng":6.891748,"name":"Granges-Marnand"},{"lat":47.41673,"lng":9.251527,"name":"Gossau SG"},{"lat":46.971283,"lng":9.551447,"name":"Landquart"},{"lat":47.166291,"lng":9.47322,"name":"Buchs SG"},{"lat":47.696364,"lng":8.633597,"name":"Schaffhausen Fronwagplatz"},{"lat":47.696301,"lng":8.634489,"name":"City Schaffhausen Food"},{"lat":46.919582,"lng":9.562875,"name":"Zizers"},{"lat":47.698146,"lng":8.632665,"name":"Pronto Schaffhausen SBB"},{"lat":46.966855,"lng":9.556347,"name":"Landquart"},{"lat":47.210018,"lng":7.004195,"name":"Les Breuleux"},{"lat":47.703931,"lng":8.615687,"name":"Schaffhausen Riet"},{"lat":46.936861,"lng":9.565687,"name":"Zizers"},{"lat":47.413577,"lng":9.270625,"name":"Gossau"},{"lat":47.703042,"lng":8.645433,"name":"Schaffhausen Gruben"},{"lat":46.027458,"lng":8.937356,"name":"Vezia"},{"lat":46.988571,"lng":6.891318,"name":"Peseux"},{"lat":46.015342,"lng":8.912566,"name":"Bioggio"},{"lat":47.65325,"lng":8.853312,"name":"Stein am Rhein"},{"lat":47.154391,"lng":9.510295,"name":"Vaduz Mühleholz"},{"lat":47.687124,"lng":8.753831,"name":"Diessenhofen"},{"lat":47.143778,"lng":9.517006,"name":"Vaduz"},{"lat":46.028448,"lng":8.967453,"name":"Canobbio TI"},{"lat":46.028321,"lng":8.967566,"name":"Canobbio Ipermercato Resega"},{"lat":46.012824,"lng":8.933017,"name":"Lugano Breganzona"},{"lat":47.140192,"lng":9.520757,"name":"Vaduz FL"},{"lat":46.970043,"lng":6.86964,"name":"Colombier"},{"lat":47.601755,"lng":9.000537,"name":"Müllheim"},{"lat":47.408625,"lng":9.306833,"name":"St. Gallen Shopping Arena"},{"lat":45.997334,"lng":8.902618,"name":"Agno"},{"lat":47.7467,"lng":8.480622,"name":"Schleitheim"},{"lat":47.057565,"lng":6.893088,"name":"Fontainemelon"},{"lat":46.185804,"lng":7.207839,"name":"Leytron"},{"lat":46.017297,"lng":8.958398,"name":"Lugano nord"},{"lat":47.175364,"lng":9.509841,"name":"Schaan"},{"lat":47.256808,"lng":6.999138,"name":"Saignelégier"},{"lat":47.206304,"lng":9.493004,"name":"Haag"},{"lat":46.019964,"lng":8.969424,"name":"Lugano Pregassona"},{"lat":46.172093,"lng":7.220547,"name":"Riddes"},{"lat":46.845969,"lng":6.843248,"name":"Estavayer-Le-Lac"},{"lat":47.721378,"lng":8.665524,"name":"Schaffhausen Herblingen"},{"lat":47.212116,"lng":9.495049,"name":"Haag"},{"lat":46.965739,"lng":6.854456,"name":"Colombier"},{"lat":47.565837,"lng":9.096958,"name":"Weinfelden"},{"lat":47.566315,"lng":9.096933,"name":"Weinfelden Thurmarkt"},{"lat":46.009529,"lng":8.964677,"name":"Lugano Viganello"},{"lat":46.943698,"lng":6.845291,"name":"Cortaillod"},{"lat":46.200716,"lng":7.170076,"name":"Ovronnaz"},{"lat":46.002792,"lng":8.949849,"name":"City Lugano Food"},{"lat":47.408654,"lng":9.329894,"name":"St. Gallen, Bruggen"},{"lat":47.33363,"lng":9.407329,"name":"Appenzell"},{"lat":45.973689,"lng":8.879701,"name":"Caslano"},{"lat":47.22439,"lng":6.956268,"name":"Le Noirmont"},{"lat":46.707533,"lng":6.839452,"name":"Lucens"},{"lat":46.522783,"lng":6.898175,"name":"Châtel-Saint-Denis"},{"lat":46.949883,"lng":6.83763,"name":"Boudry"},{"lat":47.412709,"lng":9.336109,"name":"St. Gallen Lerchenfeld"},{"lat":46.300188,"lng":7.051333,"name":"Villars-sur-Ollon"},{"lat":47.490498,"lng":9.237901,"name":"Bischofszell"},{"lat":46.301206,"lng":7.049262,"name":"Villars-sur-Ollon Boutique"},{"lat":46.340249,"lng":7.009718,"name":"Leysin"},{"lat":47.426303,"lng":7.12749,"name":"Alle"},{"lat":47.20931,"lng":9.521508,"name":"Eschen FL"},{"lat":47.415133,"lng":9.353333,"name":"St.Gallen, Fürstenlandstr."},{"lat":47.540772,"lng":9.183579,"name":"Sulgen"},{"lat":45.973325,"lng":8.927047,"name":"Grancia"},{"lat":45.973235,"lng":8.927058,"name":"Lugano Sud"},{"lat":46.928959,"lng":6.812285,"name":"Bevaix"},{"lat":46.466595,"lng":6.894321,"name":"Blonay"},{"lat":47.746307,"lng":8.70604,"name":"Thayngen"},{"lat":46.43663,"lng":6.909741,"name":"Montreux"},{"lat":46.431537,"lng":6.911313,"name":"Montreux"},{"lat":47.417147,"lng":7.077826,"name":"Porrentruy"},{"lat":47.422559,"lng":9.371536,"name":"St. Gallen, Kornhausstr."},{"lat":46.149363,"lng":7.175143,"name":"Saxon"},{"lat":47.421165,"lng":7.080104,"name":"Porrentruy"},{"lat":47.664042,"lng":8.979402,"name":"Steckborn"},{"lat":47.424356,"lng":9.374346,"name":"St. Gallen Neugasse"},{"lat":46.398281,"lng":6.925406,"name":"Villeneuve"},{"lat":46.668215,"lng":6.800228,"name":"Moudon"},{"lat":47.426194,"lng":9.376865,"name":"City St. Gallen Food"},{"lat":47.103788,"lng":6.834943,"name":"La Chaux-de-Fonds Etoile"},{"lat":47.095596,"lng":6.830293,"name":"La Chaux-de-Fonds Piscine"},{"lat":46.778698,"lng":9.677373,"name":"Arosa Dorf"},{"lat":45.955175,"lng":8.948199,"name":"Melide"},{"lat":46.383918,"lng":6.924216,"name":"Rennaz"},{"lat":46.3839,"lng":6.924203,"name":"Rennaz"},{"lat":46.895984,"lng":6.775951,"name":"Saint-Aubin"},{"lat":46.570631,"lng":6.82028,"name":"Oron-La-Ville"},{"lat":46.097474,"lng":7.225035,"name":"Verbier"},{"lat":47.110647,"lng":6.828871,"name":"La Chaux-de-Fonds Bel-Air"},{"lat":46.782822,"lng":9.687304,"name":"Arosa"},{"lat":46.318967,"lng":6.96517,"name":"Aigle"},{"lat":45.95342,"lng":8.965628,"name":"Bissone PY"},{"lat":47.094588,"lng":6.816777,"name":"La Chaux-de-Fonds Entilles"},{"lat":47.089395,"lng":6.807974,"name":"La Chaux-de-Fonds"},{"lat":46.969677,"lng":9.684144,"name":"Schiers"},{"lat":46.970307,"lng":9.685051,"name":"Schiers"},{"lat":47.434754,"lng":9.402211,"name":"St. Gallen, St. Fiden "},{"lat":46.453134,"lng":6.857478,"name":"La Tour-de-Peilz"},{"lat":46.250387,"lng":7.013629,"name":"Bex"},{"lat":47.088655,"lng":6.802543,"name":"La Chaux-de-Fonds Eplatures"},{"lat":46.673289,"lng":9.685682,"name":"Filisur"},{"lat":46.460944,"lng":6.847254,"name":"Vevey"},{"lat":47.46167,"lng":9.380532,"name":"Wittenbach"},{"lat":46.460589,"lng":6.844719,"name":"Vevey"},{"lat":46.463259,"lng":6.84275,"name":"Vevey"},{"lat":46.799927,"lng":6.745444,"name":"Yvonand"},{"lat":46.704212,"lng":6.754492,"name":"Thierrens"},{"lat":47.437888,"lng":9.413161,"name":"St. Gallen, Gallusmarkt"},{"lat":47.437906,"lng":9.413162,"name":"St. Gallen Gallusmarkt"},{"lat":47.544633,"lng":9.277149,"name":"Amriswil"},{"lat":47.547394,"lng":9.301973,"name":"Amriswil"},{"lat":46.217732,"lng":7.006341,"name":"Saint-Maurice"},{"lat":47.062345,"lng":6.757335,"name":"Le Locle"},{"lat":47.311082,"lng":9.563041,"name":"Oberriet"},{"lat":46.266021,"lng":6.95301,"name":"Collombey"},{"lat":46.264962,"lng":6.953772,"name":"Collombey"},{"lat":47.656538,"lng":9.133212,"name":"Tägerwilen"},{"lat":46.246648,"lng":6.966668,"name":"Monthey"},{"lat":46.333689,"lng":6.890431,"name":"Vouvry"},{"lat":47.057112,"lng":6.747266,"name":"Le Locle"},{"lat":47.323508,"lng":9.568909,"name":"Oberriet"},{"lat":46.252434,"lng":6.950123,"name":"Monthey"},{"lat":47.650595,"lng":9.173253,"name":"Kreuzlingen, Sonnenstrasse"},{"lat":47.650622,"lng":9.173254,"name":"Kreuzlingen Karussell"},{"lat":46.078443,"lng":7.139201,"name":"Sembrancher"},{"lat":46.48243,"lng":6.774716,"name":"Chexbres"},{"lat":46.078277,"lng":7.137767,"name":"Sembrancher"},{"lat":47.638889,"lng":9.202684,"name":"Kreuzlingen Ziilcenter"},{"lat":47.378963,"lng":9.537811,"name":"Altstätten"},{"lat":47.63948,"lng":9.204035,"name":"Kreuzlingen Romanshornerstr."},{"lat":47.500774,"lng":9.42382,"name":"Arbon"},{"lat":47.501186,"lng":9.42446,"name":"B+H Arbon K."},{"lat":46.111007,"lng":7.075245,"name":"Martigny Cristal"},{"lat":45.874489,"lng":8.940284,"name":"Arzo"},{"lat":46.538122,"lng":6.731105,"name":"Savigny"},{"lat":46.914109,"lng":9.777585,"name":"Küblis"},{"lat":46.099122,"lng":7.082902,"name":"Martigny"},{"lat":46.103457,"lng":7.077067,"name":"Martigny Ville"},{"lat":47.521273,"lng":9.413044,"name":"Arbon"},{"lat":47.497261,"lng":7.012506,"name":"Boncourt"},{"lat":47.510553,"lng":9.431184,"name":"Arbon"},{"lat":47.511472,"lng":9.430581,"name":"Arbon Novaseta"},{"lat":47.47956,"lng":9.469385,"name":"Goldach"},{"lat":47.389196,"lng":9.561771,"name":"Lüchingen"},{"lat":47.565447,"lng":9.365956,"name":"Romanshorn"},{"lat":47.478629,"lng":9.481426,"name":"Rorschach, St. Gallerstrasse"},{"lat":47.56355,"lng":9.377226,"name":"Romanshorn"},{"lat":47.479715,"lng":9.485091,"name":"Rorschach, Thurgauerstrasse"},{"lat":46.488125,"lng":6.728684,"name":"Cully"},{"lat":47.565317,"lng":9.379164,"name":"Romanshorn, Hafen"},{"lat":45.853155,"lng":8.939855,"name":"Stabio"},{"lat":45.865596,"lng":8.976512,"name":"Mendrisio"},{"lat":47.478019,"lng":9.490971,"name":"Rorschach"},{"lat":47.443775,"lng":9.532144,"name":"Heiden"},{"lat":46.781138,"lng":6.641159,"name":"Yverdon"},{"lat":46.780348,"lng":6.636221,"name":"Yverdon Bel-Air"},{"lat":46.792914,"lng":9.820724,"name":"Davos"},{"lat":46.79657,"lng":9.821476,"name":"Davos-Platz"},{"lat":46.797597,"lng":9.827903,"name":"Davos, Talstrasse"},{"lat":46.789703,"lng":6.62728,"name":"Yverdon, Sainte Croix"},{"lat":46.789935,"lng":6.620675,"name":"Montagny-près-Yverdon"},{"lat":46.803524,"lng":9.835375,"name":"Davos-Dorf"},{"lat":46.921993,"lng":6.624417,"name":"Couvet"},{"lat":46.505087,"lng":6.688803,"name":"Lutry"},{"lat":46.641937,"lng":6.631249,"name":"Echallens"},{"lat":46.543714,"lng":6.660354,"name":"Epalinges"},{"lat":45.845359,"lng":9.016277,"name":"Serfontana"},{"lat":47.409664,"lng":9.624605,"name":"Heerbrugg"},{"lat":46.526735,"lng":6.651956,"name":"Lausanne Chailly"},{"lat":46.510585,"lng":6.65821,"name":"Pully"},{"lat":46.5328,"lng":6.647058,"name":"Sallaz Provisoire"},{"lat":47.389476,"lng":9.649043,"name":"Diepoldsau"},{"lat":46.554081,"lng":6.634945,"name":"Le Mont-sur-Lausanne"},{"lat":47.388204,"lng":9.652488,"name":"Diepoldsau"},{"lat":47.414749,"lng":9.632131,"name":"Heerbrugg"},{"lat":46.513963,"lng":6.647138,"name":"Lausanne Chissiez"},{"lat":46.90234,"lng":6.58278,"name":"Fleurier"},{"lat":45.834443,"lng":9.035553,"name":"Chiasso Dogana PY"},{"lat":47.474703,"lng":9.58014,"name":"Rheineck"},{"lat":46.537667,"lng":6.631708,"name":"Lausanne Entrebois"},{"lat":47.468554,"lng":9.589075,"name":"Rheineck"},{"lat":46.52076,"lng":6.637616,"name":"Lausanne Caroline"},{"lat":46.175249,"lng":6.870903,"name":"Coop Champéry"},{"lat":46.518745,"lng":6.635131,"name":"City Lausanne St. François F"},{"lat":46.529409,"lng":6.630489,"name":"Lausanne Pontaise"},{"lat":46.867319,"lng":9.882742,"name":"Klosters-Platz"},{"lat":46.522653,"lng":6.630459,"name":"City Lausanne Au Centre Food"},{"lat":46.515311,"lng":6.631598,"name":"Lausanne Grancy"},{"lat":46.586393,"lng":6.604663,"name":"Cheseaux"},{"lat":46.523046,"lng":6.626361,"name":"Lausanne Chauderon"},{"lat":46.516282,"lng":6.629082,"name":"Lausanne CFF RailCity"},{"lat":46.530842,"lng":6.619635,"name":"Lausanne Bergières"},{"lat":46.510315,"lng":6.626174,"name":"Lausanne La Harpe"},{"lat":46.507831,"lng":6.627175,"name":"Lausanne-Ouchy"},{"lat":46.526625,"lng":6.612439,"name":"Lausanne Prélaz"},{"lat":46.516036,"lng":6.613539,"name":"Lausanne Cour"},{"lat":46.534208,"lng":6.606119,"name":"Prilly Centre"},{"lat":46.526519,"lng":6.607762,"name":"Lausanne"},{"lat":47.454568,"lng":9.636638,"name":"St. Margrethen"},{"lat":46.490898,"lng":9.83506,"name":"St. Moritz Bellevue"},{"lat":46.498819,"lng":9.838838,"name":"St. Moritz-Dorf"},{"lat":46.529405,"lng":6.601357,"name":"Prilly Business Parc"},{"lat":46.524637,"lng":6.602577,"name":"Prilly Malley"},{"lat":46.513037,"lng":9.8597,"name":"Celerina"},{"lat":46.721183,"lng":6.538693,"name":"Orbe"},{"lat":46.532199,"lng":9.870586,"name":"Samedan"},{"lat":46.538163,"lng":6.581445,"name":"Renens Centre"},{"lat":46.732261,"lng":6.531194,"name":"Orbe"},{"lat":46.537276,"lng":6.578356,"name":"Renens"},{"lat":46.544745,"lng":6.570427,"name":"Crissier"},{"lat":46.544958,"lng":6.57002,"name":"Crissier"},{"lat":46.533702,"lng":6.566198,"name":"Ecublens"},{"lat":46.540674,"lng":6.555787,"name":"Ecublens"},{"lat":46.822944,"lng":6.501489,"name":"Sainte-Croix"},{"lat":46.608689,"lng":6.52665,"name":"Penthalaz"},{"lat":46.658559,"lng":6.511449,"name":"La Sarraz"},{"lat":46.607092,"lng":6.522604,"name":"Penthalaz Venoge"},{"lat":46.488678,"lng":9.905924,"name":"Pontresina"},{"lat":46.599944,"lng":9.96061,"name":"Zuoz"},{"lat":46.51578,"lng":6.503741,"name":"Morges"},{"lat":46.508991,"lng":6.496548,"name":"Morges Charpentiers"},{"lat":46.507153,"lng":6.485388,"name":"Morges La Gottaz"},{"lat":46.4854,"lng":6.460074,"name":"Saint-Prex"},{"lat":46.482333,"lng":6.456926,"name":"Saint-Prex"},{"lat":46.711932,"lng":6.378147,"name":"Vallorbe"},{"lat":46.700416,"lng":10.094038,"name":"Zernez"},{"lat":46.477146,"lng":6.402704,"name":"Allaman Littoral Centre"},{"lat":46.476681,"lng":6.402074,"name":"Allaman"},{"lat":46.457867,"lng":6.338647,"name":"Rolle"},{"lat":46.323713,"lng":10.054788,"name":"Poschiavo"},{"lat":46.446689,"lng":6.297238,"name":"Bursin Jura la Côte"},{"lat":46.444837,"lng":6.297316,"name":"Bursins Lac la Côte"},{"lat":46.60687,"lng":6.233235,"name":"Le Sentier"},{"lat":46.427389,"lng":6.266054,"name":"Gland Eikenott"},{"lat":46.425514,"lng":6.255309,"name":"Vich"},{"lat":46.424159,"lng":6.254805,"name":"Vich"},{"lat":46.795435,"lng":10.295427,"name":"Scuol"},{"lat":46.384413,"lng":6.23608,"name":"Nyon"},{"lat":46.388086,"lng":6.228731,"name":"Nyon Levratte"},{"lat":46.384583,"lng":6.216641,"name":"Nyon"},{"lat":46.397457,"lng":6.205818,"name":"Signy"},{"lat":46.238699,"lng":6.197432,"name":"Vésenaz"},{"lat":46.280741,"lng":6.166603,"name":"Versoix Centre"},{"lat":46.204378,"lng":6.199976,"name":"Chêne-Bougeries Montagne"},{"lat":46.192503,"lng":6.201671,"name":"Thônex"},{"lat":46.204147,"lng":6.16304,"name":"Genève Montchoisy"},{"lat":46.200487,"lng":6.160029,"name":"Genève Eaux-Vives"},{"lat":46.21199,"lng":6.149404,"name":"Genève Pâquis"},{"lat":46.193241,"lng":6.161248,"name":"Genève Florissant"},{"lat":46.220344,"lng":6.141922,"name":"Genève Montbrillant"},{"lat":46.213199,"lng":6.145695,"name":"Genève Rue de Lausanne"},{"lat":46.194767,"lng":6.152208,"name":"Genève Champel"},{"lat":46.20416,"lng":6.145197,"name":"City Genève Fusterie Food"},{"lat":46.224973,"lng":6.131364,"name":"Genève de Budé"},{"lat":46.203515,"lng":6.143864,"name":"Genève Cité"},{"lat":46.20813,"lng":6.136809,"name":"Genève Voltaire"},{"lat":46.196855,"lng":6.142844,"name":"City Genève Plainpalais Food"},{"lat":46.201247,"lng":6.139046,"name":"Genève Cirque"},{"lat":46.212452,"lng":6.131664,"name":"Genève Servette"},{"lat":46.192204,"lng":6.143667,"name":"Genève Augustins"},{"lat":46.231118,"lng":6.11903,"name":"Le Grand-Saconnex"},{"lat":46.185254,"lng":6.144104,"name":"Carouge Cardinal Mermillod"},{"lat":46.206942,"lng":6.129762,"name":"Genève Daubin"},{"lat":46.18682,"lng":6.142564,"name":"Carouge Geneve"},{"lat":46.207904,"lng":6.127367,"name":"Genève Charmilles"},{"lat":46.199825,"lng":6.132019,"name":"Genève Jonction"},{"lat":46.21324,"lng":6.123558,"name":"Genève Vieusseux"},{"lat":46.188786,"lng":6.136714,"name":"Carouge Acacias"},{"lat":46.208844,"lng":6.123107,"name":"Genève, Petit-Saconnex"},{"lat":46.203994,"lng":6.124533,"name":"Genève Saint-Jean"},{"lat":46.206287,"lng":6.11599,"name":"Genève Sports"},{"lat":46.211547,"lng":6.112648,"name":"Châtelaine"},{"lat":46.179942,"lng":6.128079,"name":"Carouge La Praille"},{"lat":46.190133,"lng":6.119375,"name":"Petit-Lancy"},{"lat":46.221838,"lng":6.095742,"name":"Vernier Blandonnet"},{"lat":46.182441,"lng":6.120196,"name":"Grand-Lancy"},{"lat":46.175689,"lng":6.120605,"name":"Grand-Lancy Palettes"},{"lat":46.232105,"lng":6.08233,"name":"City Meyrin Food"},{"lat":46.169199,"lng":6.121098,"name":"Plan-Les-Ouates"},{"lat":46.203534,"lng":6.096115,"name":"Le Lignon"},{"lat":46.187552,"lng":6.104165,"name":"Onex"},{"lat":46.214564,"lng":6.083298,"name":"Vernier"},{"lat":46.22837,"lng":6.072493,"name":"Meyrin Verchère"},{"lat":46.156062,"lng":6.096533,"name":"Perly"},{"lat":46.174747,"lng":6.083563,"name":"Confignon"},{"lat":46.174172,"lng":6.070937,"name":"Bernex"},{"lat":44.890033,"lng":-0.161718,"name":"Conthey-Vétroz CMA"}]
