[{"lat":8.49823,"lng":47.40328,"name":"[Migros] Kappenbühlweg 5, 8049 Zürich, 044 340 04 83"},{"lat":8.46899,"lng":47.43125,"name":"[Migros] Im Zentrum, 8105 Regensdorf, 044 843 14 60"},{"lat":8.51769,"lng":47.17259,"name":"[Migros] Baarerstrasse 22, 6300 Zug, 058 563 49 10"},{"lat":7.73639,"lng":47.48243,"name":"[Migros] Kasernenstrasse 8, 4410 Liestal, 058 575 88 00"},{"lat":7.58123,"lng":47.55589,"name":"[Migros] Schützenmattstrasse  27, 4051 Basel, 058 575 86 20"},{"lat":7.57342,"lng":47.55593,"name":"[Migros] Allschwilerstrasse  31, 4055 Basel, 058 575 86 70"},{"lat":7.60387,"lng":47.53934,"name":"[Migros] Münchensteinerstrasse  200, 4053 Basel, 058 575 73 00"},{"lat":7.54998,"lng":47.5531,"name":"[Migros] Baslerstrasse 191, 4123 Allschwil, 058 575 86 80"},{"lat":7.50182,"lng":47.41997,"name":"[Migros] Bahnhofstrasse  4, 4242 Laufen, 058 575 84 50"},{"lat":7.61198,"lng":47.4881,"name":"[Migros] Wollmattweg  7, 4143 Dornach, 058 575 83 30"},{"lat":7.69409,"lng":47.52045,"name":"[Migros] Burggartenstrasse  21, 4133 Pratteln, 058 575 75 40"},{"lat":7.5642,"lng":47.54696,"name":"[Migros] Neuweilerplatz 7, 4054 Basel, 058 575 80 70"},{"lat":7.57968,"lng":47.56854,"name":"[Migros] Mülhauserstrasse 70-72, 4056 Basel, 058 575 86 30"},{"lat":7.57297,"lng":47.53247,"name":"[Migros] Gorenmattstrasse 17, 4102 Binningen, 058 575 88 20"},{"lat":7.74316,"lng":47.45677,"name":"[Migros] Grüngenstrasse 1, 4416 Bubendorf, 058 575 83 60"},{"lat":7.55468,"lng":47.50993,"name":"[Migros] Mühlemattstrasse  18, 4104 Oberwil BL, 058 575 76 00"},{"lat":7.63339,"lng":47.53386,"name":"[Migros] Lutzertstrasse  40, 4132 Muttenz, 058 575 86 90"},{"lat":7.58783,"lng":47.55936,"name":"[Migros] Eisengasse 12, 4051 Basel, 058 575 70 70"},{"lat":7.59659,"lng":47.56916,"name":"[Migros] Efringerstrasse  32, 4057 Basel, 058 575 86 40"},{"lat":7.59442,"lng":47.49267,"name":"[Migros] Herrenweg  11, 4153 Reinach BL, 058 575 86 50"},{"lat":7.60725,"lng":47.54937,"name":"[Migros] Hardstrasse 105, 4052 Basel, 058 575 80 60"},{"lat":7.61525,"lng":47.57012,"name":"[Migros] Riehenstrasse 315, 4058 Basel, 058 575 75 00"},{"lat":7.60175,"lng":47.55859,"name":"[Migros] Grenzacherstrasse  62/64, 4058 Basel, 058 575 88 40"},{"lat":7.58864,"lng":47.54792,"name":"[Migros] Centralbahnstrasse  10, 4051 Basel, 058 575 84 00"},{"lat":7.59536,"lng":47.57928,"name":"[Migros] Hochbergerstrasse 70, 4057 Basel, 058 575 89 50"},{"lat":7.81731,"lng":47.46202,"name":"[Migros] Hauptstrasse 11, 4450 Sissach, 061 975 90 70"},{"lat":7.59206,"lng":47.56158,"name":"[Migros] Ochsengasse  2, 4058 Basel, 058 575 85 00"},{"lat":7.07714,"lng":47.41648,"name":"[Migros] Faubourg St Germain 2, 2900 Porrentruy, 058 575 76 50"},{"lat":7.59269,"lng":47.55279,"name":"[Migros] Aeschenvorstadt 24, 4051 Basel, 058 575 87 50"},{"lat":7.34649,"lng":47.36354,"name":"[Migros] Rue de la Maltière 12, 2800 Delémont, 058 575 71 20"},{"lat":7.65196,"lng":47.58525,"name":"[Migros] Rössligasse/Webergässchen  8, 4125 Riehen, 058 575 83 80"},{"lat":7.65609,"lng":47.52629,"name":"[Migros] Rothausstrasse  17, 4132 Muttenz, 058 575 84 30"},{"lat":7.36997,"lng":47.27668,"name":"[Migros] Rue de l'Ecluse  1, 2740 Moutier, 058 575 80 80"},{"lat":7.59644,"lng":47.50225,"name":"[Migros] Niederbergstrasse  1, 4153 Reinach BL, 058 575 71 70"},{"lat":7.62426,"lng":47.55549,"name":"[Migros] Chrischonastrasse  2, 4127 Birsfelden, 058 575 83 40"},{"lat":7.85054,"lng":47.46608,"name":"[Migros] Badweg  2, 4460 Gelterkinden, 058 575 71 00"},{"lat":7.72511,"lng":47.50262,"name":"[Migros] Ergolzstrasse  2, 4414 Füllinsdorf, 058 575 88 50"},{"lat":7.54253,"lng":47.40835,"name":"[Migros] Laufenstrasse  4, 4226 Breitenbach, 058 575 84 70"},{"lat":7.59222,"lng":47.54351,"name":"[Migros] Güterstrasse  180, 4053 Basel, 058 575 81 00"},{"lat":7.57429,"lng":47.54129,"name":"[Migros] Hauptstrasse 71, 4102 Binningen, 058 575 80 50"},{"lat":7.57243,"lng":47.56224,"name":"[Migros] Burgfelderstrasse  11, 4055 Basel, 058 575 89 00"},{"lat":7.60699,"lng":47.52159,"name":"[Migros] Kaspar Pfeiffer-Strasse  2, 4142 Münchenstein, 058 575 70 50"},{"lat":7.59567,"lng":47.46927,"name":"[Migros] Hauptstrasse  95, 4147 Aesch, 058 575 71 50"},{"lat":7.54681,"lng":47.48445,"name":"[Migros] Therwilerstrasse  9, 4107 Ettingen, 058 575 86 00"},{"lat":7.61895,"lng":47.49399,"name":"[Migros] Postplatz  7, 4144 Arlesheim, 058 575 89 20"},{"lat":7.55358,"lng":47.54746,"name":"[Migros] Spitzwaldstrasse 215, 4123 Allschwil, 058 575 70 00"},{"lat":7.5043,"lng":46.93282,"name":"[Migros] Turbenweg 1, 3073 Gümligen, 058 567 79 00"},{"lat":8.2933,"lng":47.46734,"name":"[Migros] Mellingerstrasse  142, 5400 Baden, 058 567 55 30"},{"lat":7.54805,"lng":46.95458,"name":"[Migros] Kernstrasse 9, 3067 Boll, 058 567 69 80"},{"lat":7.43986,"lng":46.94789,"name":"[Migros] Christoffelunterführung, 3011 Bern, 058  567 56 50"},{"lat":7.4466,"lng":46.95593,"name":"[Migros] Dammweg 9, 3013 Bern, 058 567 62 00"},{"lat":8.00866,"lng":47.40577,"name":"[Migros] Zentrum Rössli, 5018 Erlinsbach  AG, 058  567 95 00"},{"lat":7.47507,"lng":46.93689,"name":"[Migros] Egghölzlistrasse 1 / 1a, 3006 Bern, 058 567 58 90"},{"lat":7.84695,"lng":47.55638,"name":"[Migros] Hauptstrasse 91, 4313 Möhlin, 058 567 93 00"},{"lat":7.39929,"lng":46.9442,"name":"[Migros] Bethlehemstrasse  110, 3018 Bern, 058 567 50 30"},{"lat":7.39413,"lng":46.94962,"name":"[Migros] Murtenstrasse 266, 3027 Bern, 058 567 65 30"},{"lat":7.45755,"lng":46.99317,"name":"[Migros] Bernstrasse 103, 3052 Zollikofen, 058 567 26 00"},{"lat":7.45316,"lng":46.94218,"name":"[Migros] Thunstrasse 18, 3005 Bern, 058 567 50 50"},{"lat":7.94782,"lng":47.38311,"name":"[Migros] Hauptstrasse 20, 4654 Lostorf, 058 567 90 50"},{"lat":7.60536,"lng":46.74415,"name":"[Migros] Weststrasse 14, 3604 Thun, 058 567 29 29"},{"lat":7.3399,"lng":46.8177,"name":"[Migros] Freiburgstrasse 5b, 3150 Schwarzenburg, 058 567 33 25"},{"lat":7.23532,"lng":47.11568,"name":"[Migros] Dorfstrasse 1, 2563 Ipsach, 058 567 36 00"},{"lat":7.64545,"lng":46.74518,"name":"[Migros] Staatsstrasse 134, 3626 Hünibach, 058 567 80 30"},{"lat":7.26719,"lng":47.1518,"name":"[Migros] Schlösslistrasse 7, 2504 Biel/Bienne, 058 567 68 30"},{"lat":7.57411,"lng":46.77393,"name":"[Migros] Dorfstrasse 21, 3661 Uetendorf, 058 567 19 50"},{"lat":7.55858,"lng":47.12849,"name":"[Migros] Hauptstrasse  29, 3427 Utzenstorf, 058 567 49 00"},{"lat":7.65951,"lng":47.01347,"name":"[Migros] Emmenau 3, 3415 Hasle-Rüegsau, 058 567 88 50"},{"lat":7.64836,"lng":46.5856,"name":"[Migros] Kanderstegstrasse 31, 3714 Frutigen, 058 567 52 25"},{"lat":8.26687,"lng":47.41309,"name":"[Migros] Lenzburgerstrasse 50, 5507 Mellingen, 058 567 68 00"},{"lat":7.88666,"lng":47.30669,"name":"[Migros] Neue Aarburgstrasse 20, 4852 Rothrist, 058 567 09 00"},{"lat":7.56177,"lng":47.1831,"name":"[Migros] Hauptstrasse 21, 4562 Biberist, 058 567 46 00"},{"lat":7.45385,"lng":46.95817,"name":"[Migros] Breitenrainplatz 37, 3014 Bern, 058 567 60 80"},{"lat":7.45326,"lng":46.96094,"name":"[Migros] Scheibenstrasse 27, 3014 Bern, 058 567 59 75"},{"lat":7.43207,"lng":46.93998,"name":"[Migros] Seftigenstrasse  1, 3007 Bern, 058 567 61 50"},{"lat":7.57409,"lng":47.17104,"name":"[Migros] Friedhofstrasse 1, 4563 Gerlafingen, 058 567 77 30"},{"lat":8.04587,"lng":47.36182,"name":"[Migros] Binzmattweg 8, 5035 Unterentfelden, 058 567 20 00"},{"lat":7.86903,"lng":46.66618,"name":"[Migros] Hauptstrasse, 3812 Wilderswil, 058 567 21 80"},{"lat":8.32755,"lng":47.44998,"name":"[Migros] Zürcherstrasse 115, 5432 Neuenhof, 058 567 58 81"},{"lat":7.95448,"lng":47.54922,"name":"[Migros] Schaffhauserstrasse 61, 4332 Stein AG, 058 567 59 01"},{"lat":7.62616,"lng":46.74504,"name":"[Migros] Frutigenstrasse  60, 3604 Thun, 058 567 16 80"},{"lat":8.07931,"lng":47.37342,"name":"[Migros] Metzgergasse 1, 5034 Suhr, 058 567 15 00"},{"lat":7.63359,"lng":46.78108,"name":"[Migros] Oberdorfstrasse 33, 3612 Steffisburg, 058 567 14 50"},{"lat":7.48137,"lng":46.93987,"name":"[Migros] Jupiterstrasse  15, 3015 Bern, 058 567 65 00"},{"lat":8.21255,"lng":47.47506,"name":"[Migros] Bachmattstrasse 35, 5210 Windisch, 058 567 22 00"},{"lat":7.43253,"lng":46.92638,"name":"[Migros] Chasseralstrasse  156, 3095 Spiegel b. Bern, 058 567 51 30"},{"lat":7.69554,"lng":47.31686,"name":"[Migros] Goldgasse 13, 4710 Balsthal, 058 567 55 80"},{"lat":7.45112,"lng":47.01991,"name":"[Migros] Bernstrasse 14, 3053 Münchenbuchsee, 058 567 51 50"},{"lat":8.29255,"lng":47.48785,"name":"[Migros] Hertensteinstrasse, 5415 Nussbaumen b.Baden, 058 567 94 50"},{"lat":7.62122,"lng":46.8754,"name":"[Migros] Thunstrasse 21, 3510 Konolfingen, 058 567 82 80"},{"lat":8.25608,"lng":47.57429,"name":"[Migros] Hauptstrasse 17, 5312 Döttingen, 058 567 74 50"},{"lat":7.43752,"lng":46.97538,"name":"[Migros] Kalchackerstrasse  9, 3047 Bremgarten b. Bern, 058 567 31 50"},{"lat":8.0189,"lng":47.50802,"name":"[Migros] Hauptstrasse  44, 5070 Frick, 058 567 76 80"},{"lat":7.58083,"lng":47.08898,"name":"[Migros] Solothurnstrasse 17, 3422 Kirchberg BE, 058 567 52 50"},{"lat":7.5836,"lng":47.19742,"name":"[Migros] Hauptstrasse 22, 4552 Derendingen, 058 567 74 00"},{"lat":8.02822,"lng":46.7552,"name":"[Migros] Hauptstrasse  51, 3855 Brienz BE, 058 567 71 00"},{"lat":8.00312,"lng":47.37353,"name":"[Migros] C.F. Ballystrasse 14, 5012 Schönenwerd, 058 567 09 30"},{"lat":8.16635,"lng":47.41643,"name":"[Migros] Bruggerstrasse 11 c, 5103 Wildegg, 058 567 50 00"},{"lat":8.34779,"lng":47.43857,"name":"[Migros] Shopping - Brücke A1, 5436 Würenlos, 058 567 24 30"},{"lat":8.20855,"lng":47.44015,"name":"[Migros] Flachsacherstrasse  17, 5242 Lupfig, 058 567 90 80"},{"lat":8.29089,"lng":47.43635,"name":"[Migros] Badenerstrasse 7d, 5442 Fislisbach, 058 567 30 00"},{"lat":7.56001,"lng":47.20333,"name":"[Migros] Hauptstrasse 60-62, 4528 Zuchwil, 058 567 26 50"},{"lat":7.829,"lng":47.26493,"name":"[Migros] Fahracker 1, 4853 Murgenthal, 058 567 93 30"},{"lat":8.04748,"lng":47.3027,"name":"[Migros] Picardiestrasse  3, 5040 Schöftland, 058 567 08 80"},{"lat":8.36649,"lng":47.36317,"name":"[Migros] Bellikonerstrasse 13, 8965 Berikon, 058 567 93 50"},{"lat":8.24329,"lng":47.29421,"name":"[Migros] Hintergasse 12, 5615 Fahrwangen, 058 567 76 50"},{"lat":7.71894,"lng":47.28898,"name":"[Migros] Mühlefeldstrasse 53, 4702 Oensingen, 058 567 95 30"},{"lat":8.3419,"lng":47.27203,"name":"[Migros] Kirchfeldstrasse 8, 5630 Muri AG, 058 567 32 75"},{"lat":7.72997,"lng":47.53496,"name":"[Migros] Liebrütistrasse 39, 4303 Kaiseraugst, 058 567 33 00"},{"lat":8.09799,"lng":47.35985,"name":"[Migros] Lindenplatz 2, 5722 Gränichen, 058 567 77 50"},{"lat":8.18654,"lng":47.24125,"name":"[Migros] Sagiweg 8, 5737 Menziken, 058 567 92 80"},{"lat":7.62092,"lng":47.05907,"name":"[Migros] Lyssachstrasse  27, 3400 Burgdorf, 058 567 47 30"},{"lat":7.38329,"lng":46.94753,"name":"[Migros] Riedbachstrasse  10, 3027 Bern, 058 567 60 00"},{"lat":8.04614,"lng":47.39173,"name":"[Migros] Igelweid 18, 5000 Aarau, 058 567 53 00"},{"lat":7.47276,"lng":46.94541,"name":"[Migros] Giacomettistrasse  15, 3006 Bern, 058 567 40 80"},{"lat":7.46396,"lng":46.96587,"name":"[Migros] Wankdorffeldstrasse  71, 3014 Bern, 058 567 40 50"},{"lat":8.30869,"lng":47.47682,"name":"[Migros] Bahnhofstrasse 40/42, 5400 Baden, 058 567 54 00"},{"lat":7.41445,"lng":46.92351,"name":"[Migros] Bläuacker 10, 3098 Köniz, 058 567 58 01"},{"lat":8.17684,"lng":47.38702,"name":"[Migros] Bachstrasse 15, 5600 Lenzburg, 058  567 89 00"},{"lat":7.62656,"lng":46.76008,"name":"[Migros] Bälliz  2, 3600 Thun, 058 567 16 00"},{"lat":7.92133,"lng":47.31256,"name":"[Migros] Zürichstrasse 2, 4665 Oftringen, 058 567 95 80"},{"lat":7.24733,"lng":47.14075,"name":"[Migros] Kanalgasse 36-38, 2502 Biel/Bienne, 058 567 69 00"},{"lat":8.34975,"lng":47.35265,"name":"[Migros] Zufikerstrasse 2, 5620 Bremgarten AG, 058 567 70 00"},{"lat":7.56014,"lng":46.8732,"name":"[Migros] Bahnhofplatz 5, 3110 Münsingen, 058 567 36 25"},{"lat":7.68172,"lng":46.68578,"name":"[Migros] Terminus, 3700 Spiez, 058 567 10 50"},{"lat":7.70386,"lng":47.18664,"name":"[Migros] Bernstrasse 33, 3360 Herzogenbuchsee, 058 567 79 30"},{"lat":7.79829,"lng":47.55533,"name":"[Migros] Lindenstrasse 3, 4310 Rheinfelden, 058 567 08 00"},{"lat":7.85214,"lng":46.68156,"name":"[Migros] Rugenparkstrasse 1, 3800 Interlaken, 058 567 80 50"},{"lat":7.78552,"lng":47.21313,"name":"[Migros] Wiesenstrasse 28, 4900 Langenthal, 058 567 32 25"},{"lat":8.36927,"lng":47.42182,"name":"[Migros] Shopping-Center, 8957 Spreitenbach, 058 567 13 50"},{"lat":7.3744,"lng":46.94553,"name":"[Migros] Gilberte-de-Courgenay-Platz 4, 3027 Bern, 058 567 03 03"},{"lat":8.32471,"lng":47.46712,"name":"[Migros] Landstrasse  69, 5430 Wettingen, 058 567 20 50"},{"lat":7.24633,"lng":47.12635,"name":"[Migros] Lyssstrasse 15, 2560 Nidau, 058 567 94 00"},{"lat":8.27242,"lng":47.34932,"name":"[Migros] Bahnhofstrasse 7, 5610 Wohlen AG, 058 567 23 00"},{"lat":7.56499,"lng":46.9267,"name":"[Migros] Richigenstrasse 1, 3076 Worb, 058 567 45 00"},{"lat":7.45971,"lng":46.92251,"name":"[Migros] Seftigenstrasse  368, 3084 Wabern, 058 567 30 25"},{"lat":7.43365,"lng":46.95551,"name":"[Migros] Zähringerstrasse 43, 3012 Bern, 058 567 66 50"},{"lat":7.94214,"lng":47.2915,"name":"[Migros] Aarburgerstrasse 5, 4800 Zofingen, 058 567 25 00"},{"lat":7.49586,"lng":46.89588,"name":"[Migros] Neumattstrasse 4, 3123 Belp, 058 567 56 30"},{"lat":7.5333,"lng":47.20679,"name":"[Migros] Wengistrasse 13, 4500 Solothurn, 058 567 10 00"},{"lat":7.37666,"lng":46.96677,"name":"[Migros] Kappelenring 2, 3032 Hinterkappelen, 058 567 80 00"},{"lat":7.89878,"lng":47.34999,"name":"[Migros] Solothurnerstrasse 21, 4600 Olten, 058 567 96 50"},{"lat":7.2524,"lng":47.13201,"name":"[Migros] Brüggstrasse 5, 2503 Biel/Bienne, 058 567 31 00"},{"lat":8.29611,"lng":47.58588,"name":"[Migros] Promenadenstrasse 10, 5330 Bad Zurzach, 058 567 27 00"},{"lat":7.84019,"lng":47.11371,"name":"[Migros] Bernstrasse 6, 4950 Huttwil, 058 567 37 50"},{"lat":7.90972,"lng":47.34649,"name":"[Migros] Louis Giroud-Strasse 20, 4600 Olten, 058 567 97 30"},{"lat":7.37127,"lng":46.55398,"name":"[Migros] Saanenstrasse, 3770 Zweisimmen, 058 567 27 50"},{"lat":7.80219,"lng":47.31765,"name":"[Migros] Hausimollstrasse 1, 4622 Egerkingen, 058 567 75 00"},{"lat":7.30326,"lng":47.07946,"name":"[Migros] Steinweg 28, 3250 Lyss, 058 567 91 30"},{"lat":7.49598,"lng":46.95693,"name":"[Migros] Bernstrasse 114, 3072 Ostermundigen, 058 567 05 00"},{"lat":7.43797,"lng":46.94744,"name":"[Migros] Bubenbergplatz  8, 3011 Bern, 058 567 61 00"},{"lat":7.39006,"lng":46.93922,"name":"[Migros] Bottigenstrasse  7, 3018 Bern, 058 567 37 00"},{"lat":7.78744,"lng":46.93949,"name":"[Migros] Schlossstrasse  1a, 3550 Langnau i. E., 058 567 87 30"},{"lat":8.18155,"lng":47.25811,"name":"[Migros] Sandgasse  6, 5734 Reinach AG, 058 567 07 00"},{"lat":8.1848,"lng":46.72826,"name":"[Migros] Bahnhofstrasse 1, 3860 Meiringen, 058 567 51 80"},{"lat":7.24408,"lng":47.13495,"name":"[Migros] Bahnhofstrasse  15, 2502 Biel/Bienne, 058 567 67 50"},{"lat":7.28418,"lng":46.47577,"name":"[Migros] Untergstaadstrasse 3, 3780 Gstaad, 058 567 46 80"},{"lat":7.48528,"lng":46.97422,"name":"[Migros] Talweg 6, 3063 Ittigen, 058 567 82 00"},{"lat":7.43835,"lng":46.9497,"name":"[Migros] Bahnhofplatz 10, 3011 Bern, 058 567 56 50"},{"lat":7.49314,"lng":47.01629,"name":"[Migros] Industriestrasse 10, 3321 Schönbühl EKZ, 058 565 87 00"},{"lat":7.44484,"lng":46.94827,"name":"[Migros] Marktgasse 46, 3011 Bern, 058 567 63 00"},{"lat":7.61388,"lng":46.74442,"name":"[Migros] Talackerstrasse 62, 3604 Thun, 058 567 17 00"},{"lat":7.267,"lng":47.11966,"name":"[Migros] Erlenstrasse  40, 2555 Brügg b. Biel, 058 567 38 00"},{"lat":7.39926,"lng":47.18977,"name":"[Migros] Freiestrasse 10, 2540 Grenchen, 058 567 78 00"},{"lat":7.51133,"lng":47.21841,"name":"[Migros] Fabrikstrasse 6, 4513 Langendorf, 058 567 84 00"},{"lat":8.08887,"lng":47.38463,"name":"[Migros] Wynecenter, 5033 Buchs AG, 058 567 34 00"},{"lat":8.37006,"lng":47.42332,"name":"[Migros] Shoppi Tivoli, 8957 Spreitenbach, 058 567 12 00"},{"lat":8.20916,"lng":47.48257,"name":"[Migros] Neumarkt 1, 5200 Brugg AG, 058 567 72 00"},{"lat":6.13762,"lng":46.19144,"name":"[Migros] Rue Gustave-Revilliod  4, 1227 Carouge GE, 022 307 06 60"},{"lat":6.11265,"lng":46.21898,"name":"[Migros] Avenue Louis-Casaï  27, 1211 Genève 28, 022 979 07 77"},{"lat":6.11027,"lng":46.23151,"name":"[Migros] Route de l'Aéroport 25, 1215 Genève 15 Aéroport, 022 791 74 40"},{"lat":6.14075,"lng":46.18349,"name":"[Migros] Rue du Marché  16, 1227 Carouge GE, 022 342 04 88"},{"lat":6.1525,"lng":46.19077,"name":"[Migros] Avenue de Champel 61, 1206 Genève, 022 704 35 55"},{"lat":6.12315,"lng":46.20822,"name":"[Migros] Promenade de l'Europe  11, 1203 Genève, 022 339 70 70"},{"lat":6.19432,"lng":46.19633,"name":"[Migros] Avenue de Bel-Air  12, 1225 Chêne-Bourg, 022 860 82 60"},{"lat":6.1398,"lng":46.20113,"name":"[Migros] Place du Cirque  2, 1204 Genève, 022 329 16 17"},{"lat":6.14222,"lng":46.20981,"name":"[Migros] Place de Cornavin 3-7, 1201 Genève, 022 716 06 20"},{"lat":6.1435,"lng":46.19315,"name":"[Migros] Rue de Carouge  64, 1205 Genève, 022 807 09 60"},{"lat":6.15851,"lng":46.20396,"name":"[Migros] Rue des Eaux-Vives  17-19, 1207 Genève, 058 573 38 80"},{"lat":6.1462,"lng":46.20393,"name":"[Migros] Place de la Fusterie  7, 1204 Genève, 022 316 01 60"},{"lat":6.27567,"lng":46.41705,"name":"[Migros] Rue de Mauverney  22, 1196 Gland, 022 354 06 60"},{"lat":6.22117,"lng":46.38904,"name":"[Migros] chemin de la Fontaine 5, 1260 Nyon, 022 994 39 59"},{"lat":6.11956,"lng":46.22852,"name":"[Migros] Rue Sonnex 20, 1218 Le Grand-Saconnex, 022 761 61 10"},{"lat":6.13062,"lng":46.20079,"name":"[Migros] Boulevard Carl-Vogt  6, 1205 Genève, 022 705 14 60"},{"lat":6.09638,"lng":46.20345,"name":"[Migros] Place du Lignon  29 A, 1219 Le Lignon, 022 979 33 30"},{"lat":6.08262,"lng":46.23192,"name":"[Migros] Avenue de Feuillasse  24, 1217 Meyrin, 022 989 13 50"},{"lat":6.14974,"lng":46.21258,"name":"[Migros] Rue des Paquis  41, 1201 Genève, 022 716 18 50"},{"lat":6.14491,"lng":46.21137,"name":"[Migros] Rue de Lausanne 18-20, 1201 Genève, 022 716 19 50"},{"lat":6.23508,"lng":46.38282,"name":"[Migros] Rue de la Morâche 6, 1260 Nyon, 022 994 74 24"},{"lat":6.1101,"lng":46.18852,"name":"[Migros] Rue des Bossons 78-80, 1213 Petit-Lancy, 022 879 57 30"},{"lat":6.12237,"lng":46.17497,"name":"[Migros] Av. des Communes-Réunies 52, 1212 Grand-Lancy, 022 884 30 84"},{"lat":6.11557,"lng":46.16763,"name":"[Migros] Route de Saint-Julien 176, 1228 Plan-les-Ouates, 058 573 38 40"},{"lat":6.16395,"lng":46.19192,"name":"[Migros] Route de Florissant  86, 1206 Genève, 022 704 35 45"},{"lat":6.12966,"lng":46.21341,"name":"[Migros] Rue de la Servette  93, 1202 Genève, 022 749 14 49"},{"lat":6.19969,"lng":46.19304,"name":"[Migros] Rue de Genève  92, 1226 Thônex, 022 860 83 20"},{"lat":6.12582,"lng":46.22439,"name":"[Migros] Chemin de la Tourelle 2-4, 1209 Genève, 022 710 27 20"},{"lat":6.08121,"lng":46.21511,"name":"[Migros] Route de Peney 2-4, 1214 Vernier, 058 573 38 00"},{"lat":6.19953,"lng":46.24096,"name":"[Migros] Route de Thonon 55, 1245 Collonge-Bellerive, 022 855 96 55"},{"lat":6.13917,"lng":46.21624,"name":"[Migros] Rue du Vidollet  5, 1202 Genève, 022 734 04 10"},{"lat":6.15883,"lng":46.20077,"name":"[Migros] Rue de la Terrassière 29, 1207 Genève, 022 787 55 87"},{"lat":6.16456,"lng":46.27991,"name":"[Migros] Avenue Adrien Lachenal  7, 1290 Versoix, 022 775 15 45"},{"lat":6.13321,"lng":46.18277,"name":"[Migros] Avenue Vibert  29, 1227 Carouge GE, 058 573 37 50"},{"lat":6.00324,"lng":46.23755,"name":"[Migros] CC Val Thoiry, 01710 Thoiry, 04-50426330"},{"lat":6.62476,"lng":46.50809,"name":"[Migros] Avenue de Rhodanie 2, 1007 Lausanne, 058 573 73 40"},{"lat":6.63605,"lng":46.63889,"name":"[Migros] Rue de Praz-Palud 2, 1040 Echallens, 058 573 63 50"},{"lat":6.85134,"lng":46.84796,"name":"[Migros] Route de la Chapelle 24, 1470 Estavayer-le-Lac, 058 573 64 50"},{"lat":7.01599,"lng":46.25047,"name":"[Migros] Rue Centrale  43-45, 1880 Bex, 058 573 69 50"},{"lat":6.61762,"lng":46.51575,"name":"[Migros] Avenue de Cour  36, 1007 Lausanne, 058 573 71 90"},{"lat":6.50666,"lng":46.61376,"name":"[Migros] Route des Chavannes 1, 1304 Cossonay-Ville, 058 573 70 10"},{"lat":6.56491,"lng":46.53452,"name":"[Migros] chemin du Croset 7, 1024 Ecublens VD, 058 573 63 00"},{"lat":6.62609,"lng":46.51244,"name":"[Migros] Avenue de la Harpe  17, 1007 Lausanne, 058 573 72 80"},{"lat":6.64148,"lng":46.58775,"name":"[Migros] Route de Bottens 1, 1053 Cugy VD, 058 573 70 40"},{"lat":6.8952,"lng":46.46447,"name":"[Migros] Route du Village 37, 1807 Blonay, 058 573 68 50"},{"lat":6.37775,"lng":46.71172,"name":"[Migros] Grand-Rue  23, 1337 Vallorbe, 058 573 77 30"},{"lat":6.65016,"lng":46.76656,"name":"[Migros] Rue de Lausanne 10, 1400 Yverdon-les-Bains, 058 573 77 90"},{"lat":6.61662,"lng":46.52166,"name":"[Migros] Av. de Sévelin 2 Ab, 1007 Lausanne, 058 573 74 30"},{"lat":6.82572,"lng":46.57196,"name":"[Migros] Route de Lausanne  2, 1610 Oron-la-Ville, 058 573 75 50"},{"lat":6.60774,"lng":46.53321,"name":"[Migros] Route de Cossonay  9, 1008 Prilly, 058 573 75 80"},{"lat":6.50328,"lng":46.81949,"name":"[Migros] Rue de l'Industrie 21, 1450 Ste-Croix, 058 573 77 00"},{"lat":6.23057,"lng":46.60584,"name":"[Migros] Rue de la Gare 7, 1347 Le Sentier, 058 573 74 63"},{"lat":6.63465,"lng":46.52567,"name":"[Migros] Rue de la Borde  3B, 1018 Lausanne, 058 573 72 50"},{"lat":6.60284,"lng":46.52685,"name":"[Migros] Chemin du Viaduc 1, 1008 Prilly, 058 573 76 10"},{"lat":6.63335,"lng":46.53761,"name":"[Migros] Route Aloys-Fauquez  97, 1018 Lausanne, 058 573 71 60"},{"lat":6.62928,"lng":46.52103,"name":"[Migros] Voie du Chariot 4-6, 1003 Lausanne, 058 573 72 20"},{"lat":6.42597,"lng":46.47371,"name":"[Migros] Route Suisse 26, 1163 Etoy, 058 573 70 70"},{"lat":6.56456,"lng":46.52305,"name":"[Migros] Louis Favre 8A, 1024 Ecublens VD, 058 573 37 20"},{"lat":6.53136,"lng":46.72379,"name":"[Migros] Rue des Terreaux 22, 1350 Orbe, 058 573 75 20"},{"lat":6.67086,"lng":46.54856,"name":"[Migros] Place de la Croix-Blanche 11, 1066 Epalinges, 058 573 64 00"},{"lat":6.85791,"lng":46.45253,"name":"[Migros] Place des Anciens-Fossés 10B, 1814 La Tour-de-Peilz, 058 573 71 00"},{"lat":6.62832,"lng":46.53046,"name":"[Migros] Avenue Jomini  11, 1018 Lausanne, 058 573 73 70"},{"lat":6.61594,"lng":46.5277,"name":"[Migros] Avenue d'Echallens  63, 1004 Lausanne, 058 573 74 00"},{"lat":6.89348,"lng":46.44127,"name":"[Migros] Rue du Léman  9, 1815 Clarens, 058 573 62 50"},{"lat":6.62053,"lng":46.78751,"name":"[Migros] En Chamard, 1442 Montagny-Yverdon, 058 573 56 00"},{"lat":6.59777,"lng":46.53093,"name":"[Migros] Avenue de Florissant 38, 1020 Renens VD, 058 573 76 40"},{"lat":6.49489,"lng":46.50972,"name":"[Migros] Rue de la gare 19, 1110 Morges, 058 573 57 00"},{"lat":6.57639,"lng":46.53647,"name":"[Migros] Avenue du Tir-Fédéral  12, 1022 Chavannes-Renens, 058 573 69 80"},{"lat":6.55309,"lng":46.54754,"name":"[Migros] Rue de la Gare  2, 1030 Bussigny-Lausanne, 058 573 62 00"},{"lat":6.64679,"lng":46.53331,"name":"[Migros] Route de Berne 1, 1010 Lausanne, 058 573 73 10"},{"lat":6.80055,"lng":46.66954,"name":"[Migros] Avenue de Préville, 1510 Moudon, 058 573 66 50"},{"lat":6.93963,"lng":46.82016,"name":"[Migros] Rue du Temple  19, 1530 Payerne, 058 573 67 00"},{"lat":6.33838,"lng":46.4611,"name":"[Migros] Av. de la Gare 17, 1180 Rolle, 058 573 68 00"},{"lat":6.91009,"lng":46.43243,"name":"[Migros] Place du Marché  6, 1820 Montreux, 058 573 66 00"},{"lat":6.84018,"lng":46.46362,"name":"[Migros] Av. Gustave Coindet 11, 1800 Vevey, 058 573 61 00"},{"lat":6.65152,"lng":46.52732,"name":"[Migros] Avenue de la Vallonnette  2, 1012 Lausanne, 058 573 54 00"},{"lat":6.61847,"lng":46.53145,"name":"[Migros] Avenue des Bergières  50, 1004 Lausanne, 058 573 65 50"},{"lat":6.63271,"lng":46.51487,"name":"[Migros] Avenue d'Ouchy  11, 1006 Lausanne, 058 573 65 00"},{"lat":6.58088,"lng":46.53855,"name":"[Migros] Rue de la Mèbre  9, 1020 Renens VD, 058 573 67 50"},{"lat":6.65967,"lng":46.51167,"name":"[Migros] Chemin du Pré-de-la-Tour  3, 1009 Pully, 058 573 58 00"},{"lat":6.63576,"lng":46.78124,"name":"[Migros] Rue de Neuchâtel  3, 1400 Yverdon-les-Bains, 058 573 60 00"},{"lat":6.62666,"lng":46.52284,"name":"[Migros] Rue des Terreaux  23, 1003 Lausanne, 058 573 50 00"},{"lat":6.56906,"lng":46.55436,"name":"[Migros] Chemin du Closalet 7, 1023 Crissier, 058 573 55 00"},{"lat":6.61301,"lng":46.55905,"name":"[Migros] En Félezin, 1032 Romanel-s-Lausanne, 058 573 59 00"},{"lat":6.93645,"lng":46.3167,"name":"[Migros] Ch. Sous-le-Grand Pré 4, 1860 Aigle, 058 573 51 00"},{"lat":6.84285,"lng":46.46559,"name":"[Migros] Rue des Moulins  11, 1800 Vevey, 058 573 77 61"},{"lat":8.3177,"lng":47.04207,"name":"[Migros] Tribschenstrasse  66, 6005 Luzern, 041 360 13 30"},{"lat":8.50551,"lng":47.17793,"name":"[Migros] Hertizentrum 10, 6300 Zug, 041 725 35 50"},{"lat":8.31152,"lng":46.9845,"name":"[Migros] Seestrasse 15, 6052 Hergiswil NW, 041 630 34 43"},{"lat":8.65007,"lng":46.82515,"name":"[Migros] Gotthardstrasse  144, 6472 Erstfeld, 041 880 17 27"},{"lat":8.51517,"lng":47.16526,"name":"[Migros] Grabenstrasse  5, 6300 Zug, 041 711 40 40"},{"lat":8.3489,"lng":47.0954,"name":"[Migros] Unterdorfstrasse, 6033 Buchrain, 041 440 00 24"},{"lat":7.97151,"lng":47.24843,"name":"[Migros] Hauptstrasse  52, 6260 Reiden, 062 749 10 60"},{"lat":8.41597,"lng":46.97778,"name":"[Migros] Ennetbürgerstrasse  45, 6374 Buochs, 041 624 91 40"},{"lat":8.30967,"lng":47.04953,"name":"[Migros] Zentralstrasse  7, 6003 Luzern, 041 220 19 83"},{"lat":8.18371,"lng":47.03864,"name":"[Migros] Hellbühlstrasse  10, 6102 Malters, 041 499 60 40"},{"lat":8.34021,"lng":47.05448,"name":"[Migros] Kreuzbuchstrasse  53, 6006 Luzern, 041 375 80 40"},{"lat":8.27381,"lng":47.08988,"name":"[Migros] Kapfstrasse 3, 6020 Emmenbrücke, 041 288 85 40"},{"lat":8.30717,"lng":47.04627,"name":"[Migros] Winkelriedstrasse 58, 6003 Luzern, 041 226 01 40"},{"lat":8.27405,"lng":47.06221,"name":"[Migros] Ruopigeplatz, 6015 Reussbühl, 041 259 09 20"},{"lat":8.44121,"lng":47.08349,"name":"[Migros] Siegwartstrasse  11, 6403 Küssnacht am Rigi, 041 854 80 40"},{"lat":8.26017,"lng":47.04975,"name":"[Migros] Fanghöfli  14, 6014 Littau, 041 259 22 00"},{"lat":8.46151,"lng":47.18177,"name":"[Migros] Zugerstrasse 15-17, 6330 Cham, 041 784 30 40"},{"lat":8.60899,"lng":46.99991,"name":"[Migros] Bahnhofplatz 19, 6440 Brunnen, 041 820 66 20"},{"lat":8.57972,"lng":47.13789,"name":"[Migros] Zugerstrasse  32, 6314 Unterägeri, 041 754 41 41"},{"lat":8.29907,"lng":47.05065,"name":"[Migros] Bruchstrasse  18, 6003 Luzern, 041 249 92 92"},{"lat":7.99418,"lng":47.12277,"name":"[Migros] Ettiswilerstrasse  14, 6130 Willisau, 041 972 61 61"},{"lat":8.55099,"lng":47.05101,"name":"[Migros] Parkstrasse 25, 6410 Goldau, 041 859 00 40"},{"lat":8.30892,"lng":47.0185,"name":"[Migros] Gemeindehausplatz 14+15, 6048 Horw, 041 348 01 40"},{"lat":7.92825,"lng":47.13719,"name":"[Migros] Zelgmatte 2, 6144 Zell LU, 041 989 70 40"},{"lat":8.42838,"lng":47.14128,"name":"[Migros] Buonaserstrasse 1, 6343 Rotkreuz, 041 798 29 60"},{"lat":8.01659,"lng":46.94827,"name":"[Migros] Vormüli  1, 6170 Schüpfheim, 041 485 40 00"},{"lat":8.30412,"lng":47.03146,"name":"[Migros] Zihlmattweg 46, 6005 Luzern, 041 414 48 40"},{"lat":8.52516,"lng":47.19548,"name":"[Migros] Bahnhofstrasse 5, 6340 Baar, 041 761 70 66"},{"lat":8.11279,"lng":47.08841,"name":"[Migros] Rüediswilerstrasse 79, 6017 Ruswil, 041 496 71 90"},{"lat":7.98383,"lng":47.18265,"name":"[Migros] Grosmatt 1, 6243 Egolzwil, 041 984 07 00"},{"lat":8.19933,"lng":47.11692,"name":"[Migros] Mettenwilstrasse 11, 6204 Sempach, 041 469 40 10"},{"lat":8.24962,"lng":47.12701,"name":"[Migros] Gääli 6, 6026 Rain, 041 459 71 00"},{"lat":8.32872,"lng":47.03711,"name":"[Migros] Langensandstr. 23, 6005 Luzern, 041 368 11 44"},{"lat":8.24967,"lng":46.89703,"name":"[Migros] Nelkenstrasse 5, 6060 Sarnen, 041 666 53 33"},{"lat":8.34101,"lng":47.08129,"name":"[Migros] Zentralstrasse 16, 6030 Ebikon, 041 445 70 30"},{"lat":8.65128,"lng":46.87279,"name":"[Migros] Gotthardstrasse  67, 6463 Bürglen UR, 041 874 07 77"},{"lat":8.07059,"lng":47.05605,"name":"[Migros] Entlebucherstr. 36, 6110 Wolhusen, 041 492 50 40"},{"lat":8.51702,"lng":47.17324,"name":"[Migros] Baarerstrasse 22, 6300 Zug, 041 726 32 40"},{"lat":8.29165,"lng":47.16583,"name":"[Migros] Hauptstrasse 5, 6280 Hochdorf, 041 914 00 40"},{"lat":8.27522,"lng":47.07744,"name":"[Migros] Sonnenplatz  1, 6020 Emmenbrücke, 041 269 30 60"},{"lat":8.28263,"lng":47.03384,"name":"[Migros] Luzernerstrasse  30, 6010 Kriens, 041 329 65 65"},{"lat":8.64683,"lng":47.01558,"name":"[Migros] Mythen-Centerstr. 18, 6438 Ibach, 041 819 50 50"},{"lat":8.30961,"lng":47.05459,"name":"[Migros] Hertensteinstrasse 9, 6004 Luzern, 041 417 07 40"},{"lat":8.2924,"lng":47.07402,"name":"[Migros] Seetalstrasse 50, 6020 Emmenbrücke, 041 269 10 40"},{"lat":8.10207,"lng":47.17267,"name":"[Migros] Bahnhofstrasse 28, 6210 Sursee, 041 926 30 40"},{"lat":8.47783,"lng":47.19181,"name":"[Migros] Hinterbergstrasse  40, 6312 Steinhausen, 041 748 66 84"},{"lat":8.35566,"lng":46.96468,"name":"[Migros] Bitzistrasse  2, 6370 Stans, 041 618 88 88"},{"lat":8.34666,"lng":47.08571,"name":"[Migros] Zugerstrasse  5, 6030 Ebikon, 041 445 25 25"},{"lat":7.09976,"lng":47.22342,"name":"[Migros] Rue Albert-Gobat  1, 2720 Tramelan, 058 573 00 75"},{"lat":6.81057,"lng":47.09486,"name":"[Migros] Place du Tricentenaire  3, 2300 La Chaux-de-Fonds, 058 573 17 00"},{"lat":7.12042,"lng":46.8644,"name":"[Migros] Route de l'Industrie 25, 1784 Courtepin, 058 573 00 55"},{"lat":7.17235,"lng":46.80978,"name":"[Migros] Chemin Cité-des-Jardins 13A, 1700 Fribourg, 058 573 26 00"},{"lat":7.16124,"lng":46.77615,"name":"[Migros] Route des Pralettes 1, 1723 Marly, 058 573 02 00"},{"lat":7.14444,"lng":46.80061,"name":"[Migros] Chemin de Béthléem 7, 1700 Fribourg, 058 573 03 00"},{"lat":6.99528,"lng":47.15153,"name":"[Migros] Rue Baptiste-Savoye  62, 2610 St-Imier, 058 573 01 25"},{"lat":6.58053,"lng":46.90204,"name":"[Migros] Grand-Rue  27, 2114 Fleurier, 058 573 22 50"},{"lat":7.31639,"lng":46.89038,"name":"[Migros] Bernstrasse 25, 3175 Flamatt, 058 573 09 50"},{"lat":6.83776,"lng":46.95014,"name":"[Migros] Rue Oscar-Huguenin  10, 2017 Boudry, 058 573 17 50"},{"lat":6.90172,"lng":47.05801,"name":"[Migros] Rue Comble-Emine 5, 2053 Cernier, 058 573 18 50"},{"lat":7.19789,"lng":47.21932,"name":"[Migros] Rue de Pierre-Pertuis 11, 2710 Tavannes, 058 573 10 50"},{"lat":7.0886,"lng":47.06189,"name":"[Migros] Chemin des Vergers  20, 2520 La Neuveville, 058 573 04 50"},{"lat":6.78387,"lng":46.89968,"name":"[Migros] Rue de Combamare  21, 2025 Chez-le-Bart, 058 573 19 75"},{"lat":6.8518,"lng":46.96725,"name":"[Migros] Avenue de la Gare  16, 2013 Colombier NE, 058 573 01 00"},{"lat":7.13358,"lng":46.79378,"name":"[Migros] Rue du centre 4, 1752 Villars-sur-Glâne, 058 573 03 50"},{"lat":6.99982,"lng":47.25455,"name":"[Migros] Rue de la Gruère 23, 2350 Saignelégier, 058 573 05 50"},{"lat":7.19398,"lng":46.9737,"name":"[Migros] Murtenstrasse 15, 3210 Kerzers, 058 573 04 00"},{"lat":7.04517,"lng":46.88546,"name":"[Migros] Route de Pré-Vert 5, 1580 Avenches, 058 573 05 00"},{"lat":7.14901,"lng":46.81013,"name":"[Migros] Route de Sainte-Thérèse 2a, 1700 Fribourg, 058 573 26 50"},{"lat":7.14899,"lng":46.82897,"name":"[Migros] Route d'Englisberg 15b, 1763 Granges-Paccot, 058 573 19 85"},{"lat":7.05392,"lng":46.61924,"name":"[Migros] Place de la Gare, 1630 Bulle,"},{"lat":7.06075,"lng":47.05638,"name":"[Migros] Route de Neuchâtel 40, 2525 Le Landeron, 058 573 25 40"},{"lat":6.84296,"lng":46.9443,"name":"[Migros] Chemin de Ronzi 2, 2016 Cortaillod, 058 573 10 90"},{"lat":6.92981,"lng":46.99199,"name":"[Migros] Rue de l'Hôpital  12, 2000 Neuchâtel, 058 573 19 07"},{"lat":6.95537,"lng":47.00404,"name":"[Migros] Avenue des Portes-Rouges 46, 2000 Neuchâtel, 058 573 25 00"},{"lat":6.8272,"lng":47.10028,"name":"[Migros] Rue Daniel-Jeanrichard  23, 2300 La Chaux-de-Fonds, 058 573 11 00"},{"lat":7.15437,"lng":46.8034,"name":"[Migros] Rue St-Pierre 2, 1700 Fribourg, 058 573 00 00"},{"lat":7.12271,"lng":46.93001,"name":"[Migros] Bernstrasse 18, 3280 Murten, 058 573 25 50"},{"lat":6.88954,"lng":46.98591,"name":"[Migros] Rue Jämes-Paris  4, 2034 Peseux, 058 573 07 50"},{"lat":7.05745,"lng":46.62321,"name":"[Migros] Rue Château d'En-Bas  2, 1630 Bulle, 058 573 06 00"},{"lat":6.74775,"lng":47.05611,"name":"[Migros] Rue Bournot 35, 2400 Le Locle, 058 573 16 00"},{"lat":6.91167,"lng":46.69046,"name":"[Migros] Rue Paul-Bondallaz 9, 1680 Romont FR, 058 573 02 50"},{"lat":7.15231,"lng":46.7997,"name":"[Migros] Boulevard de Pérolles  21 A, 1700 Fribourg, 058 573 10 00"},{"lat":6.80355,"lng":47.09021,"name":"[Migros] Charles Naine 44, 2300 La Chaux-de-Fonds, 058 573 18 00"},{"lat":7.19182,"lng":46.84615,"name":"[Migros] Käsereistrasse 3, 3186 Düdingen, 058 573 08 50"},{"lat":6.90484,"lng":46.52521,"name":"[Migros] Rte de Montreux 56, 1618 Châtel-St-Denis, 058 573 08 00"},{"lat":7.07583,"lng":46.60048,"name":"[Migros] Route de Pra-Riond 2, 1635 La Tour-de-Trême, 058 573 01 50"},{"lat":7.07827,"lng":46.78723,"name":"[Migros] Avry-Centre, 1754 Avry-sur-Matran, 058 573 30 00"},{"lat":7.00692,"lng":47.01133,"name":"[Migros] Rue Fleur-de-Lys  26, 2074 Marin-Epagnier, 058 573 81 11"},{"lat":9.50372,"lng":47.16929,"name":"[Migros] Im Rösle 2, 9494 Schaan, 00423 2398877"},{"lat":9.25044,"lng":47.41197,"name":"[Migros] Stadtbühlstrasse  12, 9200 Gossau SG, 071 387 35 51"},{"lat":9.19966,"lng":47.37424,"name":"[Migros] Kirchweg 2, 9113 Degersheim, 071 372 05 11"},{"lat":9.53616,"lng":47.43895,"name":"[Migros] Sonnentalstrasse 2, 9410 Heiden, 071 898 03 21"},{"lat":9.35425,"lng":47.41963,"name":"[Migros] Zürcherstrasse  34, 9000 St. Gallen, 071 272 54 31"},{"lat":9.49508,"lng":47.47409,"name":"[Migros] Promenadenstrasse 83, 9400 Rorschach, 071 846 83 61"},{"lat":9.58866,"lng":47.46844,"name":"[Migros] Rhyguetstrasse 2, 9424 Rheineck, 071 886 04 11"},{"lat":9.56344,"lng":47.31583,"name":"[Migros] Staatsstrasse 56, 9463 Oberriet SG, 071 763 74 31"},{"lat":9.83828,"lng":46.80732,"name":"[Migros] Promenade 146, 7260 Davos Dorf, 081 410 13 41"},{"lat":9.52074,"lng":46.85779,"name":"[Migros] Ringstrasse  91, 7000 Chur, 081 286 63 31"},{"lat":9.38625,"lng":47.43526,"name":"[Migros] Langgasse  20, 9008 St. Gallen, 071 246 63 11"},{"lat":9.40502,"lng":47.43721,"name":"[Migros] Rorschacherstrasse  249, 9016 St. Gallen, 071 282 15 11"},{"lat":9.31376,"lng":47.12303,"name":"[Migros] Bahnhofstrasse  18, 8880 Walenstadt, 081 720 23 51"},{"lat":9.37993,"lng":47.42416,"name":"[Migros] Moosbruggstrasse 1, 9000 St. Gallen, 071 221 74 11"},{"lat":9.17565,"lng":47.64818,"name":"[Migros] Hauptstrasse 63, 8280 Kreuzlingen, 071 421 44 11"},{"lat":9.00036,"lng":47.60019,"name":"[Migros] Thurstrasse 3, 8555 Müllheim Dorf, 052 762 71 21"},{"lat":9.14199,"lng":47.65386,"name":"[Migros] Hauptstrasse 117, 8274 Tägerwilen, 071 666 68 11"},{"lat":9.24413,"lng":47.4926,"name":"[Migros] Steigstrasse  5, 9220 Bischofszell, 071 424 05 11"},{"lat":9.33422,"lng":47.4083,"name":"[Migros] Straubenzellstrasse  23, 9014 St. Gallen, 071 272 32 11"},{"lat":9.11978,"lng":47.26647,"name":"[Migros] Kapplerstrasse  16, 9642 Ebnat-Kappel, 071 992 05 71"},{"lat":9.46778,"lng":47.47481,"name":"[Migros] Ulrich-Rösch-Strasse  5, 9403 Goldach, 071 846 84 11"},{"lat":8.99166,"lng":47.46347,"name":"[Migros] Winterthurerstrasse 27, 8370 Sirnach, 071 969 54 11"},{"lat":9.05683,"lng":47.43888,"name":"[Migros] Wilerstrasse 204, 9533 Kirchberg SG, 071 421 42 20"},{"lat":9.06822,"lng":47.41268,"name":"[Migros] Wilerstrasse 17, 9602 Bazenheid, 071 932 04 11"},{"lat":9.18299,"lng":47.54014,"name":"[Migros] Hauptstrasse  3, 8583 Sulgen, 071 644 75 11"},{"lat":9.39085,"lng":47.39074,"name":"[Migros] Speicherstrasse  8, 9053 Teufen AR, 071 335 62 11"},{"lat":9.09429,"lng":47.56718,"name":"[Migros] Weststrasse 27/29, 8570 Weinfelden, 071 626 13 11"},{"lat":9.53384,"lng":46.87102,"name":"[Migros] Masanserstrasse 240, 7000 Chur, 081 403 54 11"},{"lat":9.38907,"lng":47.46018,"name":"[Migros] Romanshorner Strasse 30, 9303 Wittenbach, 071 292 35 11"},{"lat":9.5377,"lng":47.37718,"name":"[Migros] Stossstrasse  2, 9450 Altstätten SG, 071 757 62 11"},{"lat":9.29816,"lng":47.54677,"name":"[Migros] Kirchstrasse  9, 8580 Amriswil, 071 414 56 11"},{"lat":9.43252,"lng":47.51264,"name":"[Migros] St. Gallerstrasse 6, 9320 Arbon, 071 447 95 11"},{"lat":9.40715,"lng":47.33482,"name":"[Migros] Unteres Ziel, 9050 Appenzell, 071 788 16 11"},{"lat":9.47266,"lng":47.16406,"name":"[Migros] Churerstrasse  10, 9470 Buchs SG, 081 755 84 11"},{"lat":9.51249,"lng":46.846,"name":"[Migros] Pargherastrasse  1-3, 7000 Chur, 081 255 73 11"},{"lat":9.52804,"lng":46.8519,"name":"[Migros] Gäuggelistrasse 28, 7000 Chur, 081 256 52 11"},{"lat":9.56186,"lng":46.96779,"name":"[Migros] Bahnhofstrasse 54, 7302 Landquart, 081 288 25 11"},{"lat":9.82124,"lng":46.79355,"name":"[Migros] Promenade 40, 7270 Davos Platz, 081 414 95 11"},{"lat":9.18638,"lng":47.41305,"name":"[Migros] Magdenauerstrasse  10, 9230 Flawil, 071 394 52 11"},{"lat":9.25638,"lng":47.41755,"name":"[Migros] St. Gallerstrasse 115, 9200 Gossau SG, 071 388 56 11"},{"lat":9.28322,"lng":47.38622,"name":"[Migros] Kasernenstrasse 18, 9100 Herisau, 071 353 52 11"},{"lat":9.19601,"lng":47.64181,"name":"[Migros] Bleichestrasse  15, 8280 Kreuzlingen, 071 686 02 11"},{"lat":9.36748,"lng":47.56465,"name":"[Migros] Bahnhofstrasse 54a, 8590 Romanshorn, 071 466 13 11"},{"lat":9.48896,"lng":47.47782,"name":"[Migros] Trischlistrasse 15, 9400 Rorschach, 071 846 86 11"},{"lat":9.39506,"lng":47.43114,"name":"[Migros] Rorschacherstrasse 150, 9006 St. Gallen, 071 242 65 11"},{"lat":9.39159,"lng":47.43582,"name":"[Migros] Bachstrasse 29, 9008 St. Gallen, 071 243 12 11"},{"lat":9.13292,"lng":47.43809,"name":"[Migros] Neudorfstrasse  2, 9240 Uzwil, 071 955 63 11"},{"lat":9.08816,"lng":47.29845,"name":"[Migros] Bahnhofstrasse 19, 9630 Wattwil, 071 987 05 11"},{"lat":9.11108,"lng":47.56744,"name":"[Migros] Amriswilerstrasse 12, 8570 Weinfelden, 071 626 14 11"},{"lat":9.63103,"lng":47.40681,"name":"[Migros] Bahnhofstrasse  2, 9443 Widnau, 071 726 13 11"},{"lat":9.04246,"lng":47.46284,"name":"[Migros] Obere Bahnhofstrasse 5, 9500 Wil SG, 071 914 34 11"},{"lat":9.43985,"lng":46.69449,"name":"[Migros] Im Park, 7430 Thusis, 081 632 14 11"},{"lat":9.20983,"lng":46.7739,"name":"[Migros] Glennerstrasse  30, 7130 Ilanz, 081 926 12 11"},{"lat":9.43126,"lng":47.04197,"name":"[Migros] Einkaufszentrum, 8879 Pizolpark (Mels), 081 725 95 11"},{"lat":9.65141,"lng":47.45008,"name":"[Migros] Einkaufszentrum, 9430 St. Margrethen SG, 071 747 34 11"},{"lat":9.37055,"lng":47.42214,"name":"[Migros] St. Leonhardstrasse  35, 9000 St. Gallen, 071 224 13 11"},{"lat":9.31647,"lng":47.41741,"name":"[Migros] Wiesenbachstrasse  7, 9030 Abtwil SG, 071 313 17 17"},{"lat":8.73093,"lng":47.49965,"name":"[Migros] Unterer Graben  33, 8400 Winterthur, 052 269 35 11"},{"lat":8.65422,"lng":47.69925,"name":"[Migros] Dürstlingweg  2, 8203 Schaffhausen, 052 630 23 11"},{"lat":8.84392,"lng":47.43908,"name":"[Migros] Tösstalstrasse 54, 8488 Turbenthal, 052 396 72 11"},{"lat":8.87751,"lng":47.3681,"name":"[Migros] Heinrich - Gujerstrasse 10, 8494 Bauma, 052 396 54 11"},{"lat":8.71199,"lng":47.50687,"name":"[Migros] Wülflingerstrasse  71, 8400 Winterthur, 052 224 43 11"},{"lat":8.75214,"lng":47.68596,"name":"[Migros] Bahnhofstrasse  15, 8253 Diessenhofen, 052 646 13 11"},{"lat":8.90073,"lng":47.55971,"name":"[Migros] Zürcherstrasse  227, 8500 Frauenfeld, 052 728 03 71"},{"lat":8.84461,"lng":47.30032,"name":"[Migros] Bachtelstrasse  12, 8340 Hinwil, 043 843 15 11"},{"lat":8.62001,"lng":47.70647,"name":"[Migros] Hohlenbaumstrasse  79, 8200 Schaffhausen, 052 632 05 71"},{"lat":8.77216,"lng":47.50425,"name":"[Migros] Hintermühlenstrasse 4, 8409 Winterthur, 052 303 52 11"},{"lat":8.69373,"lng":47.51084,"name":"[Migros] Lindenplatz 1, 8408 Winterthur, 052 224 03 41"},{"lat":8.70678,"lng":47.74881,"name":"[Migros] Biberstrasse  30, 8240 Thayngen, 052 645 24 11"},{"lat":8.73032,"lng":47.53553,"name":"[Migros] Winterthurerstrasse  5, 8472 Seuzach, 052 320 15 11"},{"lat":8.9822,"lng":47.66833,"name":"[Migros] Im Feldbach 1b, 8266 Steckborn, 052 762 04 31"},{"lat":8.50454,"lng":47.69038,"name":"[Migros] Löhningerstrasse  4, 8213 Neunkirch, 052 687 35 11"},{"lat":8.91333,"lng":47.27554,"name":"[Migros] Bahnhofstrasse, 8636 Wald ZH, 055 256 56 11"},{"lat":8.89941,"lng":47.49009,"name":"[Migros] Bahnhofstrasse  2, 8355 Aadorf, 052 368 35 11"},{"lat":8.68873,"lng":47.602,"name":"[Migros] Weinlandstrasse 4, 8451 Kleinandelfingen, 052 304 35 11"},{"lat":8.7555,"lng":47.38662,"name":"[Migros] Grundstrasse 4, 8320 Fehraltorf, 043 355 64 11"},{"lat":8.74025,"lng":47.49474,"name":"[Migros] Pflanzschulstrasse  9, 8400 Winterthur, 052 234 05 11"},{"lat":8.65041,"lng":47.51728,"name":"[Migros] Weiacherstrasse 1, 8422 Pfungen, 052 303 43 11"},{"lat":8.61788,"lng":47.68107,"name":"[Migros] Wildenstrasse  8, 8212 Neuhausen am Rheinfall, 052 674 15 11"},{"lat":8.84916,"lng":47.25798,"name":"[Migros] Bandwiesstrasse 6, 8630 Rüti ZH, 055 250 54 11"},{"lat":8.75875,"lng":47.51123,"name":"[Migros] Guggenbühlstrasse  1, 8404 Winterthur, 052 245 12 31"},{"lat":8.7065,"lng":47.49188,"name":"[Migros] Zürcherstrasse 102, 8406 Winterthur, 052 208 14 11"},{"lat":8.76235,"lng":47.48559,"name":"[Migros] Hinterdorfstrasse  40, 8405 Winterthur, 052 235 34 11"},{"lat":8.68573,"lng":47.4281,"name":"[Migros] Märtplatz  5, 8307 Effretikon, 052 354 35 11"},{"lat":8.86163,"lng":47.66098,"name":"[Migros] Grossi Schanz  10, 8260 Stein am Rhein, 052 742 23 11"},{"lat":8.63411,"lng":47.69897,"name":"[Migros] Bahnhofstrasse  56/58, 8200 Schaffhausen, 052 630 24 11"},{"lat":8.59174,"lng":47.51011,"name":"[Migros] Bülacherstrasse  17, 8424 Embrach, 043 266 45 11"},{"lat":8.89644,"lng":47.55703,"name":"[Migros] Bahnhofplatz  70-72, 8500 Frauenfeld, 052 724 05 11"},{"lat":8.78124,"lng":47.36863,"name":"[Migros] Turmstrasse  9, 8330 Pfäffikon ZH, 043 288 63 11"},{"lat":8.66397,"lng":47.72027,"name":"[Migros] Stüdliackerstrasse  4, 8207 Schaffhausen, 052 644 84 11"},{"lat":8.79976,"lng":47.32771,"name":"[Migros] Bahnhofstrasse  151, 8620 Wetzikon ZH, 043 488 24 11"},{"lat":8.72039,"lng":47.49908,"name":"[Migros] Strickerstrasse  3, 8400 Winterthur, 052 268 93 11"},{"lat":8.72007,"lng":47.51875,"name":"[Migros] Schaffhauserstrasse 152, 8400 Winterthur, 052 208 15 11"},{"lat":8.97215,"lng":46.35358,"name":"[Migros] Via General Guisan 26, 6710 Biasca, 091 821 78 30"},{"lat":8.94133,"lng":46.01649,"name":"[Migros] Via San Gottardo  150, 6942 Savosa, 091 821 72 60"},{"lat":9.02404,"lng":45.83738,"name":"[Migros] Via Bernardino Luini, 6830 Chiasso, 091 821 75 20"},{"lat":8.81139,"lng":46.17532,"name":"[Migros] Via S.Gottardo 56, 6648 Minusio, 091 821 77 30"},{"lat":8.94579,"lng":45.99097,"name":"[Migros] Via Geretta, 6902 Lugano 2 Paradiso Caselle, 091 821 72 20"},{"lat":8.93643,"lng":45.84857,"name":"[Migros] Via Giulia 43, 6855 Stabio, 091 821 75 10"},{"lat":8.96654,"lng":46.0668,"name":"[Migros] Piazza Giuseppe Motta, 6950 Tesserete, 091 821 72 30"},{"lat":8.7998,"lng":46.47806,"name":"[Migros] Via Pian della Croce, 6760 Faido, 091 821 78 40"},{"lat":8.95865,"lng":46.01838,"name":"[Migros] Via Monte Boglia 5, 6900 Lugano, 091 821 72 10"},{"lat":8.93903,"lng":46.00977,"name":"[Migros] Via Besso 74, 6900 Massagno, 091 821 72 00"},{"lat":8.78242,"lng":46.16849,"name":"[Migros] Via A. Franzoni 43, 6604 Locarno, 091 821 77 40"},{"lat":9.01361,"lng":46.17821,"name":"[Migros] Via Bellinzona  33, 6512 Giubiasco, 091 821 78 10"},{"lat":8.7737,"lng":46.15409,"name":"[Migros] Via Muraccio  2, 6612 Ascona, 091 821 77 00"},{"lat":8.98594,"lng":45.87037,"name":"[Migros] Via L. Lavizzari  2, Piazza alla Valle, 6850 Mendrisio, 091 821 75 00"},{"lat":8.8517,"lng":46.17956,"name":"[Migros] Via al Giardino, 6598 Tenero, 091 821 77 50"},{"lat":9.04409,"lng":46.22509,"name":"[Migros] Via Corogna, 6532 Castione, 091 821 78 20"},{"lat":8.92596,"lng":45.97144,"name":"[Migros] Parco Commerciale Grancia, 6916 Grancia, 091 821 72 70"},{"lat":8.93158,"lng":46.06057,"name":"[Migros] Via Cantonale, 6807 Taverne, 091 821 72 90"},{"lat":8.96748,"lng":46.0233,"name":"[Migros] Via delle scuole, 6963 Pregassona, 091 821 72 80"},{"lat":8.70587,"lng":46.24553,"name":"[Migros] Via Cantonale, 6673 Maggia, 091 821 77 60"},{"lat":9.02433,"lng":46.1938,"name":"[Migros] Piazza Rinaldo Simen 8, 6500 Bellinzona, 091 821 78 00"},{"lat":8.79573,"lng":46.16568,"name":"[Migros] Via Stefano Franscini 31, 6600 Locarno, 091 821 76 00"},{"lat":9.01633,"lng":45.8455,"name":"[Migros] Viale Serfontana, 6834 Morbio Inferiore, 091 821 74 00"},{"lat":8.96242,"lng":46.00634,"name":"[Migros] Viale Castagnola, 6900 Lugano, 091 821 72 50"},{"lat":8.90546,"lng":45.99827,"name":"[Migros] Via Lugano 21, 6982 Agno, 091 821 70 00"},{"lat":8.95175,"lng":46.00703,"name":"[Migros] Via Pretorio 15, 6900 Lugano, 091 821 71 00"},{"lat":8.96185,"lng":46.15385,"name":"[Migros] Via Serrai 5, 6592 S. Antonino, 091 850 85 11"},{"lat":7.35953,"lng":46.23586,"name":"[Migros] Avenue Ritz  31, 1950 Sion, 027 720 65 00"},{"lat":7.38375,"lng":46.23217,"name":"[Migros] Avenue Grand-Champsec 30, 1950 Sion, 027 720 65 80"},{"lat":7.11955,"lng":46.13645,"name":"[Migros] Rue de Provence 4, 1926 Fully, 027 720 65 30"},{"lat":7.35197,"lng":46.2503,"name":"[Migros] Centre Commercial du Stade, 1965 Savièse, 027 720 66 55"},{"lat":7.00525,"lng":46.2148,"name":"[Migros] Av. du Simplon 15, 1890 St-Maurice, 027 720 65 35"},{"lat":7.92815,"lng":46.10854,"name":"[Migros] Hôtel du Glacier, 3906 Saas Fee, 027 720 65 55"},{"lat":6.86063,"lng":46.37734,"name":"[Migros] En Bellossy, 1897 Bouveret, 027 720 65 10"},{"lat":7.99012,"lng":46.32526,"name":"[Migros] Kelchbachstrasse 16, 3904 Naters, 027 720 68 70"},{"lat":7.47322,"lng":46.30944,"name":"[Migros] Route du Rawyl 32, 3963 Crans-Montana, 027 720 65 70"},{"lat":7.74809,"lng":46.02171,"name":"[Migros] Hofmatte, 3920 Zermatt, 027 720 65 40"},{"lat":7.6252,"lng":46.37794,"name":"[Migros] Kantonstrasse, 3954 Leukerbad, 027 720 65 60"},{"lat":7.22328,"lng":46.09662,"name":"[Migros] Les Arcades, 1936 Verbier, 027 720 65 75"},{"lat":7.29188,"lng":46.18223,"name":"[Migros] Lake Placid, rte des Ecluses 23, 1997 Haute-Nendaz, 027 720 65 95"},{"lat":7.74537,"lng":46.3147,"name":"[Migros] Bahnhofstrasse, 3940 Steg VS, 027 720 65 90"},{"lat":7.87986,"lng":46.29296,"name":"[Migros] Brückenweg 10, 3930 Visp, 027 720 67 25"},{"lat":7.52915,"lng":46.29236,"name":"[Migros] Avenue Général Guisan, 3960 Sierre, 027 720 66 00"},{"lat":7.51338,"lng":46.28149,"name":"[Migros] Rte des Lacustres, 3960 Sierre, 027 720 68 50"},{"lat":6.95224,"lng":46.26834,"name":"[Migros] Entre-deux-Fossaux, 1868 Collombey, 027 720 66 90"},{"lat":6.95223,"lng":46.25356,"name":"[Migros] Avenue de la Gare, 1870 Monthey, 027 720 66 60"},{"lat":7.98935,"lng":46.31841,"name":"[Migros] Belalpstrasse 1, 3900 Brig, 027 720 66 30"},{"lat":7.07192,"lng":46.10171,"name":"[Migros] Place du Manoir, 1920 Martigny, 027 720 41 30"},{"lat":7.35621,"lng":46.22861,"name":"[Migros] Avenue de France 14-20, 1950 Sion, 027 720 68 00"},{"lat":7.96951,"lng":46.30891,"name":"[Migros] Kantonsstrasse 58, 3902 Glis, 027 720 67 00"},{"lat":7.30094,"lng":46.22354,"name":"[Migros] Route des Rottes 15, 1964 Conthey, 027 720 67 70"},{"lat":7.07656,"lng":46.11178,"name":"[Migros] Avenue de Fully 63, 1920 Martigny, 027 720 68 80"},{"lat":7.08715,"lng":46.10658,"name":"[Migros] Rue des Finettes 45, 1920 Martigny, 027 720 44 98"},{"lat":8.54787,"lng":47.3656,"name":"[Migros] Falkenstrasse 19 - 21, 8008 Zürich, 044 254 24 74"},{"lat":8.53014,"lng":47.34459,"name":"[Migros] Etzelstrasse 3, 8038 Zürich, 044 488 10 55"},{"lat":8.55376,"lng":47.36474,"name":"[Migros] Kreuzplatz 20, 8008 Zürich, 044 250 44 90"},{"lat":8.52307,"lng":47.37494,"name":"[Migros] Wengistrasse  7, 8004 Zürich, 044 242 82 00"},{"lat":8.5856,"lng":47.35909,"name":"[Migros] Witikonerstrasse  293, 8053 Zürich, 044 421 10 10"},{"lat":8.50774,"lng":47.39043,"name":"[Migros] Pfingstweidstrasse  101, 8005 Zürich, 044 278 54 88"},{"lat":8.57253,"lng":47.40385,"name":"[Migros] Winterthurerstrasse  524, 8051 Zürich, 043 299 32 50"},{"lat":8.50826,"lng":47.42022,"name":"[Migros] Jonas-Furrer-Strasse  21, 8046 Zürich, 044 377 90 19"},{"lat":8.50852,"lng":47.37,"name":"[Migros] Birmensdorferstrasse 320, 8055 Zürich, 044 456 44 22"},{"lat":8.5427,"lng":47.41056,"name":"[Migros] Hofwiesenstrasse  350-354, 8050 Zürich, 044 317 60 10"},{"lat":8.53126,"lng":47.38524,"name":"[Migros] Limmatstrasse  152, 8005 Zürich, 044 448 10 48"},{"lat":8.51807,"lng":47.35824,"name":"[Migros] Giesshübelstrasse  65, 8045 Zürich, 044 466 88 66"},{"lat":8.54861,"lng":47.41937,"name":"[Migros] Schaffhauserstrasse 470, 8052 Zürich, 043 299 62 20"},{"lat":8.43717,"lng":47.39616,"name":"[Migros] Badenerstrasse  57, 8952 Schlieren, 044 730 18 11"},{"lat":8.61762,"lng":47.39826,"name":"[Migros] Unterdorfstrasse  7, 8600 Dübendorf, 044 801 66 77"},{"lat":8.59701,"lng":47.26012,"name":"[Migros] Alte Landstrasse  24, 8810 Horgen, 044 727 37 27"},{"lat":8.56743,"lng":47.43403,"name":"[Migros] Wallisellerstrasse  8, 8152 Glattbrugg, 044 810 65 63"},{"lat":8.53991,"lng":47.52097,"name":"[Migros] Bahnhofstrasse  28, 8180 Bülach, 044 864 40 10"},{"lat":8.46856,"lng":47.43094,"name":"[Migros] Zentrum 1, 8105 Regensdorf, 044 843 14 44"},{"lat":8.68171,"lng":47.38857,"name":"[Migros] Im Zentrum  18, 8604 Volketswil, 044 945 69 66"},{"lat":8.52527,"lng":47.31128,"name":"[Migros] Albisstrasse  10, 8134 Adliswil, 044 711 90 00"},{"lat":8.64544,"lng":47.26839,"name":"[Migros] Rosengartenstrasse  10, 8706 Meilen, 043 844 12 50"},{"lat":9.07089,"lng":47.04067,"name":"[Migros] Schweizerhofstrasse  6, 8750 Glarus, 055 646 20 30"},{"lat":8.40187,"lng":47.40511,"name":"[Migros] Löwenstrasse 28, 8953 Dietikon, 044 742 39 12"},{"lat":8.56408,"lng":47.29419,"name":"[Migros] Alte Landstrasse  130, 8800 Thalwil, 044 722 51 81"},{"lat":8.58195,"lng":47.45077,"name":"[Migros] Schaffhauserstrasse  122, 8302 Kloten, 044 804 16 76"},{"lat":8.74591,"lng":47.12871,"name":"[Migros] Eisenbahnstrasse 2, 8840 Einsiedeln, 055 418 84 54"},{"lat":8.72343,"lng":47.24067,"name":"[Migros] Goethestrasse  18, 8712 Stäfa, 043 497 10 70"},{"lat":8.45262,"lng":47.27795,"name":"[Migros] Centralweg  3, 8910 Affoltern am Albis, 044 762 60 00"},{"lat":8.82051,"lng":47.22903,"name":"[Migros] Zürcherstrasse  4, 8640 Rapperswil SG, 055 220 52 72"},{"lat":8.7927,"lng":47.20058,"name":"[Migros] Gwattstrasse 11, 8808 Pfäffikon SZ, 055 415 62 92"},{"lat":8.8549,"lng":47.19177,"name":"[Migros] Feldstrasse 6, 8853 Lachen SZ, 055 451 85 30"},{"lat":8.69205,"lng":47.30285,"name":"[Migros] Gewerbestrasse 2-10, 8132 Egg b. Zürich, 044 986 24 24"},{"lat":8.54883,"lng":47.30104,"name":"[Migros] Zürcherstrasse 4, 8803 Rüschlikon, 044 704 60 90"},{"lat":8.49737,"lng":47.40384,"name":"[Migros] Regensdorferstrasse 20, 8049 Zürich, 044 344 20 80"},{"lat":8.51516,"lng":47.32966,"name":"[Migros] Ankenweid  10, 8041 Zürich, 044 482 61 60"},{"lat":8.54877,"lng":47.38622,"name":"[Migros] Winterthurerstrasse  2-4, 8006 Zürich, 044 360 37 20"},{"lat":8.55412,"lng":47.35856,"name":"[Migros] Seefeldstrasse  111-113, 8008 Zürich, 044 383 22 02"},{"lat":8.57154,"lng":47.35766,"name":"[Migros] Forchstrasse 260, 8008 Zürich, 044 382 90 50"},{"lat":8.52042,"lng":47.37025,"name":"[Migros] Birmensdorferstrasse 140, 8003 Zürich, 044 456 40 30"},{"lat":8.48581,"lng":47.37511,"name":"[Migros] Albisriederstrasse 365, 8047 Zürich, 043 931 71 13"},{"lat":8.40699,"lng":47.40838,"name":"[Migros] Überlandstrasse 22, 8953 Dietikon, 043 343 20 80"},{"lat":8.53403,"lng":47.36825,"name":"[Migros] Stockerstrasse  47, 8002 Zürich, 044 201 03 55"},{"lat":8.51855,"lng":47.39134,"name":"[Migros] Hardturmstrasse 11, 8005 Zürich, 043/366 62 50"},{"lat":8.54399,"lng":47.37437,"name":"[Migros] Mühlegasse 11, 8001 Zürich, 043 268 22 70"},{"lat":8.53918,"lng":47.4503,"name":"[Migros] Hofwiesenstrasse 40, 8153 Rümlang, 044 817 80 30"},{"lat":8.6034,"lng":47.40124,"name":"[Migros] Neugutstrasse 83, 8600 Dübendorf, 044 824 43 01"},{"lat":8.46447,"lng":47.48077,"name":"[Migros] Ruchwiesenstrasse 2, 8157 Dielsdorf, 043 422 20 70"},{"lat":8.61921,"lng":47.41209,"name":"[Migros] Industriestrasse 31, 8305 Dietlikon, 044 805 75 50"},{"lat":8.42238,"lng":47.38489,"name":"[Migros] Birmensdorferstrasse   87, 8902 Urdorf, 044 734 06 14"},{"lat":8.64164,"lng":47.3744,"name":"[Migros] Unterdorfstrasse 2, 8117 Fällanden, 043 355 40 60"},{"lat":8.55805,"lng":47.42124,"name":"[Migros] Thurgauerstrasse 106, 8152 Opfikon, 058 561 00 00"},{"lat":8.67962,"lng":47.3678,"name":"[Migros] Meierwis, 8606 Greifensee, 044 940 50 94"},{"lat":8.58211,"lng":47.31859,"name":"[Migros] Zürichstrasse  149, 8700 Küsnacht ZH, 044 914 20 80"},{"lat":8.70538,"lng":47.20639,"name":"[Migros] Schützengass  4, 8805 Richterswil, 044 784 01 93"},{"lat":8.92332,"lng":47.24086,"name":"[Migros] Rickenstrasse  12, 8733 Eschenbach SG, 055 292 22 85"},{"lat":8.46298,"lng":47.40864,"name":"[Migros] Im Zentrum  2, 8102 Oberengstringen, 044 750 01 74"},{"lat":8.62912,"lng":47.44299,"name":"[Migros] Baltenswilerstrasse  1, 8303 Bassersdorf, 044 836 86 87"},{"lat":8.59161,"lng":47.4135,"name":"[Migros] Bahnhofstrasse  30, 8304 Wallisellen, 044 830 21 33"},{"lat":8.63662,"lng":47.23522,"name":"[Migros] Rütistrasse 1, 8820 Wädenswil, 044 783 09 60"},{"lat":8.53766,"lng":47.29114,"name":"[Migros] Hintere Grundstrasse 2, 8135 Langnau am Albis, 044 713 25 85"},{"lat":8.62164,"lng":47.41915,"name":"[Migros] Pappelstrasse  2, 8305 Dietlikon, 044 833 11 63"},{"lat":8.6432,"lng":47.35098,"name":"[Migros] Zürichstrasse  108, 8123 Ebmatingen, 044 980 17 10"},{"lat":8.57608,"lng":47.33778,"name":"[Migros] Rotfluhstrasse  100, 8702 Zollikon, 043 499 52 90"},{"lat":8.8374,"lng":47.23146,"name":"[Migros] Molkereistrasse 5, 8645 Jona, 055 225 47 27"},{"lat":8.98068,"lng":47.22646,"name":"[Migros] Zürcherstrasse 25, 8730 Uznach, 055 285 86 86"},{"lat":8.4852,"lng":47.47981,"name":"[Migros] Dorfstrasse  20, 8155 Niederhasli, 044 850 56 33"},{"lat":8.76971,"lng":47.25264,"name":"[Migros] Rütistrasse 16, 8634 Hombrechtikon, 055 254 30 50"},{"lat":8.7558,"lng":47.30654,"name":"[Migros] Im Zentrum 3, 8625 Gossau ZH, 044 936 16 00"},{"lat":8.53938,"lng":47.378,"name":"[Migros] Hauptbahnhof, 8001 Zürich, 043 443 80 60"},{"lat":8.59046,"lng":47.30723,"name":"[Migros] Bahnhofstrasse  42, 8703 Erlenbach ZH, 044 914 14 44"},{"lat":9.05664,"lng":47.12922,"name":"[Migros] Ziegelbrückstrasse 21, 8867 Niederurnen, 055 617 27 37"},{"lat":8.81817,"lng":47.2258,"name":"[Migros] Untere Bahnhofstrasse  19, 8640 Rapperswil SG, 055 210 83 71"},{"lat":8.43675,"lng":47.35416,"name":"[Migros] Zürcherstrasse 15, 8903 Birmensdorf ZH, 044 777 71 41"},{"lat":8.61912,"lng":47.33659,"name":"[Migros] Dorfstrasse 17, 8126 Zumikon, 044 918 41 00"},{"lat":8.72387,"lng":47.19672,"name":"[Migros] Wächlenstrasse 1, 8832 Wollerau, 044 687 78 58"},{"lat":8.52337,"lng":47.56874,"name":"[Migros] Sandgruebenstrasse 1, 8193 Eglisau, 044 868 33 20"},{"lat":8.56223,"lng":47.45061,"name":"[Migros] unique zurich airport, 8058 Zürich - Flughafen, 044 800 30 20"},{"lat":8.71381,"lng":47.35407,"name":"[Migros] Winterthurerstrasse 18, 8610 Uster, 043 399 17 17"},{"lat":8.69598,"lng":47.25293,"name":"[Migros] Alte Landstrasse 262, 8708 Männedorf, 044  921 60 40"},{"lat":8.44685,"lng":47.39864,"name":"[Migros] Güterstrasse 5, 8952 Schlieren, 044 732 90 30"},{"lat":8.48704,"lng":47.38835,"name":"[Migros] Altstetterstrasse 145, 8048 Zürich, 044 432 23 35"},{"lat":8.53601,"lng":47.37505,"name":"[Migros] Löwenstrasse  31-35, 8001 Zürich, 044 227 10 30"},{"lat":8.54008,"lng":47.50989,"name":"[Migros] Feldstrasse 85, 8180 Bülach, 043 411 31 21"},{"lat":8.71536,"lng":47.34995,"name":"[Migros] Zürichstrasse  18, 8610 Uster, 044 905 49 49"},{"lat":8.66754,"lng":47.22907,"name":"[Migros] Oberdorfstrasse  27-31, 8820 Wädenswil, 044 783 87 27"},{"lat":8.59527,"lng":47.40832,"name":"[Migros] Glattzentrum, 8301 Glattzentrum, 044 839 34 34"},{"lat":8.53107,"lng":47.36389,"name":"[Migros] Tessinerplatz 10, 8002 Zürich, 044 202 34 84"},{"lat":8.53849,"lng":47.39264,"name":"[Migros] Schaffhauserstrasse  75, 8057 Zürich, 044 361 15 40"},{"lat":8.52943,"lng":47.33456,"name":"[Migros] Paradiesstrasse  3, 8038 Zürich, 044 482 50 75"},{"lat":8.55938,"lng":47.37955,"name":"[Migros] Toblerstrasse  73, 8044 Zürich, 044 261 30 50"},{"lat":8.52918,"lng":47.39388,"name":"[Migros] Scheffelstrasse 3, 8037 Zürich, 044 271 56 14"},{"lat":8.50868,"lng":47.37927,"name":"[Migros] Badenerstrasse  376, 8004 Zürich, 043 931 71 27"},{"lat":9.05966,"lng":47.09367,"name":"[Migros] Oberdorf 44, 8752 Näfels, 055 622 24 31"},{"lat":8.48747,"lng":47.39151,"name":"[Migros] Hohlstrasse 600, 8048 Zürich, 043 343 06 73"}]
